INT_ID,int_lon,int_lat,stop_id,stop_code,stop_lon,stop_lat,stop_name
110,-79.396989,43.697748,14410.0,13798,-79.396989,43.697748,DAVISVILLE STATION - SOUTHBOUND PLATFORM
205,-79.475991,43.652048,14473.0,13776,-79.475991,43.652048,RUNNYMEDE STATION - EASTBOUND PLATFORM
205,-79.475991,43.652048,14524.0,13775,-79.475991,43.652048,RUNNYMEDE STATION - WESTBOUND PLATFORM
214,-79.403889,43.667249,14515.0,13851,-79.403889,43.667249,SPADINA STATION - WESTBOUND PLATFORM
208,-79.452723,43.657023,14521.0,13770,-79.452723,43.657023,DUNDAS WEST STATION - WESTBOUND PLATFORM
110,-79.396989,43.697748,14461.0,13797,-79.396989,43.697748,DAVISVILLE STATION - NORTHBOUND PLATFORM
115,-79.412755,43.767867,14405.0,13789,-79.412755,43.767867,NORTH YORK CENTRE STATION - SOUTHBOUND PLATFORM
209,-79.442463,43.659246,14520.0,13767,-79.442463,43.659246,LANSDOWNE STATION - WESTBOUND PLATFORM
214,-79.403889,43.667249,14482.0,13852,-79.403889,43.667249,SPADINA STATION - EASTBOUND PLATFORM
222,-79.330286,43.682648,14492.0,13742,-79.330286,43.682648,GREENWOOD STATION - EASTBOUND PLATFORM
222,-79.330286,43.682648,14505.0,13741,-79.330286,43.682648,GREENWOOD STATION - WESTBOUND PLATFORM
109,-79.392589,43.687748,14411.0,13799,-79.392589,43.687748,ST CLAIR STATION - SOUTHBOUND PLATFORM
109,-79.392589,43.687748,14460.0,13800,-79.392589,43.687748,ST CLAIR STATION - NORTHBOUND PLATFORM
103,-79.381225,43.656517,14454.0,13809,-79.381225,43.656517,DUNDAS STATION - NORTHBOUND PLATFORM
103,-79.381225,43.656517,14417.0,13810,-79.381225,43.656517,DUNDAS STATION - SOUTHBOUND PLATFORM
115,-79.412755,43.767867,14466.0,13790,-79.412755,43.767867,NORTH YORK CENTRE STATION - NORTHBOUND PLATFORM
401,-79.386703,43.766871,14531.0,13844,-79.386703,43.766871,BAYVIEW STATION - EASTBOUND PLATFORM
209,-79.442463,43.659246,14477.0,13768,-79.442463,43.659246,LANSDOWNE STATION - EASTBOUND PLATFORM
207,-79.459891,43.655248,14475.0,13772,-79.459891,43.655248,KEELE STATION - EASTBOUND PLATFORM
113,-79.40649,43.744847,14407.0,13792,-79.40649,43.744847,YORK MILLS STATION - SOUTHBOUND PLATFORM
402,-79.376311,43.769201,14537.0,13846,-79.376311,43.769201,BESSARION STATION - WESTBOUND PLATFORM
113,-79.40649,43.744847,14464.0,13791,-79.40649,43.744847,YORK MILLS STATION - NORTHBOUND PLATFORM
162,-79.444191,43.716347,14432.0,13836,-79.444191,43.716347,LAWRENCE WEST STATION - NORTHBOUND PLATFORM
162,-79.444191,43.716347,14439.0,13835,-79.444191,43.716347,LAWRENCE WEST STATION - SOUTHBOUND PLATFORM
228,-79.263884,43.732248,14498.0,14947,-79.263884,43.732248,KENNEDY STATION - SUBWAY PLATFORM
158,-79.407119,43.674303,14443.0,13827,-79.407119,43.674303,DUPONT STATION - SOUTHBOUND PLATFORM
228,-79.263884,43.732248,14499.0,13865,-79.263884,43.732248,KENNEDY STATION - WESTBOUND PLATFORM
228,-79.263884,43.732248,14546.0,14946,-79.263884,43.732248,KENNEDY STATION - PLATFORM
228,-79.263884,43.732248,14547.0,14112,-79.263884,43.732248,KENNEDY STATION - NORTHBOUND PLATFORM
202,-79.510993,43.648348,14470.0,13781,-79.510993,43.648348,ROYAL YORK STATION - EASTBOUND PLATFORM
202,-79.510993,43.648348,14527.0,13782,-79.510993,43.648348,ROYAL YORK STATION - WESTBOUND PLATFORM
207,-79.459891,43.655248,14522.0,13771,-79.459891,43.655248,KEELE STATION - WESTBOUND PLATFORM
158,-79.407119,43.674303,14428.0,13828,-79.407119,43.674303,DUPONT STATION - NORTHBOUND PLATFORM
402,-79.376311,43.769201,14532.0,13845,-79.376311,43.769201,BESSARION STATION - EASTBOUND PLATFORM
164,-79.450792,43.734547,14437.0,13839,-79.450792,43.734547,WILSON STATION - SOUTHBOUND PLATFORM
401,-79.386703,43.766871,14538.0,13843,-79.386703,43.766871,BAYVIEW STATION - WESTBOUND PLATFORM
206,-79.466748,43.654003,14523.0,13774,-79.466748,43.654003,HIGH PARK STATION - WESTBOUND PLATFORM
114,-79.411691,43.761647,14406.0,13860,-79.411691,43.761647,SHEPPARD-YONGE STATION - SOUTHBOUND PLATFORM
108,-79.391176,43.682634,14459.0,13801,-79.391176,43.682634,SUMMERHILL STATION - NORTHBOUND PLATFORM
108,-79.391176,43.682634,14412.0,13802,-79.391176,43.682634,SUMMERHILL STATION - SOUTHBOUND PLATFORM
114,-79.411691,43.761647,14465.0,13859,-79.411691,43.761647,SHEPPARD-YONGE STATION - NORTHBOUND PLATFORM
114,-79.411691,43.761647,14530.0,13862,-79.411691,43.761647,SHEPPARD-YONGE STATION - EASTBOUND PLATFORM
227,-79.279585,43.711648,14500.0,13731,-79.279585,43.711648,WARDEN STATION - WESTBOUND PLATFORM
105,-79.383388,43.665348,14415.0,13806,-79.383388,43.665348,WELLESLEY STATION - SOUTHBOUND PLATFORM
227,-79.279585,43.711648,14497.0,13732,-79.279585,43.711648,WARDEN STATION - EASTBOUND PLATFORM
161,-79.440796,43.708582,14431.0,13833,-79.440796,43.708582,GLENCAIRN STATION - NORTHBOUND PLATFORM
161,-79.440796,43.708582,14440.0,13834,-79.440796,43.708582,GLENCAIRN STATION - SOUTHBOUND PLATFORM
215,-79.391129,43.669946,14484.0,13757,-79.391129,43.669946,BAY STATION - EASTBOUND PLATFORM
215,-79.391129,43.669946,14513.0,13758,-79.391129,43.669946,BAY STATION - WESTBOUND PLATFORM
200,-79.535993,43.637148,14468.0,13785,-79.535993,43.637148,KIPLING STATION - EASTBOUND PLATFORM
200,-79.535993,43.637148,14529.0,14948,-79.535993,43.637148,KIPLING STATION - SUBWAY PLATFORM
114,-79.411691,43.761647,14539.0,13861,-79.411691,43.761647,SHEPPARD-YONGE STATION - SUBWAY PLATFORM
206,-79.466748,43.654003,14474.0,13773,-79.466748,43.654003,HIGH PARK STATION - EASTBOUND PLATFORM
105,-79.383388,43.665348,14456.0,13805,-79.383388,43.665348,WELLESLEY STATION - NORTHBOUND PLATFORM
221,-79.337786,43.681048,14491.0,13743,-79.337786,43.681048,DONLANDS STATION - EASTBOUND PLATFORM
112,-79.40269,43.725948,14463.0,13794,-79.40269,43.725948,LAWRENCE STATION - NORTHBOUND PLATFORM
213,-79.411189,43.666448,14481.0,13760,-79.411189,43.666448,BATHURST STATION - EASTBOUND PLATFORM
112,-79.40269,43.725948,14408.0,13793,-79.40269,43.725948,LAWRENCE STATION - SOUTHBOUND PLATFORM
210,-79.435477,43.660199,14519.0,13766,-79.435477,43.660199,DUFFERIN STATION - WESTBOUND PLATFORM
213,-79.411189,43.666448,14516.0,13759,-79.411189,43.666448,BATHURST STATION - WESTBOUND PLATFORM
107,-79.388788,43.676748,14413.0,13803,-79.388788,43.676748,ROSEDALE STATION - SOUTHBOUND PLATFORM
221,-79.337786,43.681048,14506.0,13744,-79.337786,43.681048,DONLANDS STATION - WESTBOUND PLATFORM
210,-79.435477,43.660199,14478.0,13765,-79.435477,43.660199,DUFFERIN STATION - EASTBOUND PLATFORM
403,-79.367789,43.770847,14533.0,13848,-79.367789,43.770847,LESLIE STATION - EASTBOUND PLATFORM
403,-79.367789,43.770847,14536.0,13847,-79.367789,43.770847,LESLIE STATION - WESTBOUND PLATFORM
157,-79.405189,43.670249,14427.0,13853,-79.405189,43.670249,SPADINA STATION - NORTHBOUND PLATFORM
157,-79.405189,43.670249,14444.0,13854,-79.405189,43.670249,SPADINA STATION - SOUTHBOUND PLATFORM
154,-79.39069,43.659834,14424.0,13824,-79.39069,43.659834,QUEEN'S PARK STATION - NORTHBOUND PLATFORM
154,-79.39069,43.659834,14447.0,13823,-79.39069,43.659834,QUEEN'S PARK STATION - SOUTHBOUND PLATFORM
107,-79.388788,43.676748,14458.0,13804,-79.388788,43.676748,ROSEDALE STATION - NORTHBOUND PLATFORM
106,-79.385918,43.671043,14414.0,13864,-79.385918,43.671043,BLOOR STATION - SOUTHBOUND PLATFORM
404,-79.346589,43.775547,14534.0,14949,-79.346589,43.775547,DON MILLS STATION - SUBWAY PLATFORM
164,-79.450792,43.734547,14434.0,13840,-79.450792,43.734547,WILSON STATION - NORTHBOUND PLATFORM
217,-79.368988,43.673748,14510.0,13751,-79.368988,43.673748,CASTLE FRANK STATION - WESTBOUND PLATFORM
203,-79.483892,43.650148,14525.0,13778,-79.483892,43.650148,JANE STATION - WESTBOUND PLATFORM
217,-79.368988,43.673748,14487.0,13752,-79.368988,43.673748,CASTLE FRANK STATION - EASTBOUND PLATFORM
304,-79.257285,43.774648,14551.0,14118,-79.257285,43.774648,SCARBOROUGH CENTRE STATION - EASTBOUND PLATFORM
218,-79.358387,43.676948,14488.0,13749,-79.358387,43.676948,BROADVIEW STATION - EASTBOUND PLATFORM
218,-79.358387,43.676948,14509.0,13750,-79.358387,43.676948,BROADVIEW STATION - WESTBOUND PLATFORM
223,-79.322786,43.684148,14493.0,13739,-79.322786,43.684148,COXWELL STATION - EASTBOUND PLATFORM
225,-79.301585,43.688948,14495.0,13735,-79.301585,43.688948,MAIN STREET STATION - EASTBOUND PLATFORM
159,-79.41589,43.684048,14429.0,13829,-79.41589,43.684048,ST CLAIR WEST STATION - NORTHBOUND PLATFORM
225,-79.301585,43.688948,14502.0,13736,-79.301585,43.688948,MAIN STREET STATION - WESTBOUND PLATFORM
155,-79.393467,43.666621,14425.0,13825,-79.393467,43.666621,MUSEUM STATION - NORTHBOUND PLATFORM
155,-79.393467,43.666621,14446.0,13826,-79.393467,43.666621,MUSEUM STATION - SOUTHBOUND PLATFORM
165,-79.462781,43.750204,14435.0,14945,-79.462781,43.750204,DOWNSVIEW STATION - SUBWAY PLATFORM
212,-79.418395,43.664275,14517.0,13762,-79.418395,43.664275,CHRISTIE STATION - WESTBOUND PLATFORM
159,-79.41589,43.684048,14442.0,13830,-79.41589,43.684048,ST CLAIR WEST STATION - SOUTHBOUND PLATFORM
223,-79.322786,43.684148,14504.0,13740,-79.322786,43.684148,COXWELL STATION - WESTBOUND PLATFORM
203,-79.483892,43.650148,14472.0,13777,-79.483892,43.650148,JANE STATION - EASTBOUND PLATFORM
201,-79.524192,43.645147,14528.0,13783,-79.524192,43.645147,ISLINGTON STATION - WESTBOUND PLATFORM
208,-79.452723,43.657023,14476.0,13769,-79.452723,43.657023,DUNDAS WEST STATION - EASTBOUND PLATFORM
304,-79.257285,43.774648,14542.0,14119,-79.257285,43.774648,SCARBOROUGH CENTRE STATION - WESTBOUND PLATFORM
111,-79.398648,43.705227,14409.0,13795,-79.398648,43.705227,EGLINTON STATION - SOUTHBOUND PLATFORM
111,-79.398648,43.705227,14462.0,13796,-79.398648,43.705227,EGLINTON STATION - NORTHBOUND PLATFORM
160,-79.436091,43.699148,14430.0,13832,-79.436091,43.699148,EGLINTON WEST STATION - NORTHBOUND PLATFORM
160,-79.436091,43.699148,14441.0,13831,-79.436091,43.699148,EGLINTON WEST STATION - SOUTHBOUND PLATFORM
302,-79.276507,43.766714,14544.0,13728,-79.276507,43.766714,ELLESMERE STATION - SOUTHBOUND PLATFORM
302,-79.276507,43.766714,14549.0,13727,-79.276507,43.766714,ELLESMERE STATION - NORTHBOUND PLATFORM
116,-79.415291,43.780847,14404.0,14111,-79.415291,43.780847,FINCH STATION - SOUTHBOUND PLATFORM
116,-79.415291,43.780847,14467.0,14944,-79.415291,43.780847,FINCH STATION - SUBWAY PLATFORM
301,-79.270436,43.750475,14548.0,13730,-79.270436,43.750475,LAWRENCE EAST STATION - NORTHBOUND PLATFORM
211,-79.42629,43.662448,14479.0,13764,-79.42629,43.662448,OSSINGTON STATION - EASTBOUND PLATFORM
301,-79.270436,43.750475,14545.0,13729,-79.270436,43.750475,LAWRENCE EAST STATION - SOUTHBOUND PLATFORM
211,-79.42629,43.662448,14518.0,13763,-79.42629,43.662448,OSSINGTON STATION - WESTBOUND PLATFORM
201,-79.524192,43.645147,14469.0,13784,-79.524192,43.645147,ISLINGTON STATION - EASTBOUND PLATFORM
212,-79.418395,43.664275,14480.0,13761,-79.418395,43.664275,CHRISTIE STATION - EASTBOUND PLATFORM
404,-79.346589,43.775547,14535.0,14109,-79.346589,43.775547,DON MILLS STATION - WESTBOUND PLATFORM
165,-79.462781,43.750204,14436.0,14110,-79.462781,43.750204,DOWNSVIEW STATION - SOUTHBOUND PLATFORM
303,-79.272179,43.7704,14543.0,13726,-79.272179,43.7704,MIDLAND STATION - WESTBOUND PLATFORM
102,-79.379616,43.652738,14453.0,13812,-79.379616,43.652738,QUEEN STATION - NORTHBOUND PLATFORM
156,-79.398089,43.668848,14483.0,13856,-79.398089,43.668848,ST GEORGE STATION - EASTBOUND PLATFORM
156,-79.398089,43.668848,14445.0,13857,-79.398089,43.668848,ST GEORGE STATION - SOUTHBOUND PLATFORM
156,-79.398089,43.668848,14426.0,13858,-79.398089,43.668848,ST GEORGE STATION - NORTHBOUND PLATFORM
153,-79.388225,43.654618,14423.0,13821,-79.388225,43.654618,ST PATRICK STATION - NORTHBOUND PLATFORM
153,-79.388225,43.654618,14448.0,13822,-79.388225,43.654618,ST PATRICK STATION - SOUTHBOUND PLATFORM
303,-79.272179,43.7704,14550.0,13725,-79.272179,43.7704,MIDLAND STATION - EASTBOUND PLATFORM
152,-79.386959,43.651122,14422.0,13820,-79.386959,43.651122,OSGOODE STATION - NORTHBOUND PLATFORM
104,-79.383103,43.660789,14416.0,13807,-79.383103,43.660789,COLLEGE STATION - SOUTHBOUND PLATFORM
152,-79.386959,43.651122,14449.0,13819,-79.386959,43.651122,OSGOODE STATION - SOUTHBOUND PLATFORM
101,-79.378109,43.649061,14419.0,13814,-79.378109,43.649061,KING STATION - SOUTHBOUND PLATFORM
101,-79.378109,43.649061,14452.0,13813,-79.378109,43.649061,KING STATION - NORTHBOUND PLATFORM
151,-79.385004,43.647605,14421.0,13817,-79.385004,43.647605,ST ANDREW STATION - NORTHBOUND PLATFORM
151,-79.385004,43.647605,14450.0,13818,-79.385004,43.647605,ST ANDREW STATION - SOUTHBOUND PLATFORM
104,-79.383103,43.660789,14455.0,13808,-79.383103,43.660789,COLLEGE STATION - NORTHBOUND PLATFORM
102,-79.379616,43.652738,14418.0,13811,-79.379616,43.652738,QUEEN STATION - SOUTHBOUND PLATFORM
156,-79.398089,43.668848,14514.0,13855,-79.398089,43.668848,ST GEORGE STATION - WESTBOUND PLATFORM
224,-79.312686,43.686548,14494.0,13738,-79.312686,43.686548,WOODBINE STATION - EASTBOUND PLATFORM
216,-79.376161,43.672103,14511.0,13754,-79.376161,43.672103,SHERBOURNE STATION - WESTBOUND PLATFORM
305,-79.251654,43.774882,14541.0,13722,-79.251654,43.774882,MCCOWAN STATION - WESTBOUND PLATFORM
305,-79.251654,43.774882,14552.0,13721,-79.251654,43.774882,MCCOWAN STATION - PLATFORM
216,-79.376161,43.672103,14486.0,13753,-79.376161,43.672103,SHERBOURNE STATION - EASTBOUND PLATFORM
219,-79.352497,43.678239,14508.0,13747,-79.352497,43.678239,CHESTER STATION - WESTBOUND PLATFORM
219,-79.352497,43.678239,14489.0,13748,-79.352497,43.678239,CHESTER STATION - EASTBOUND PLATFORM
224,-79.312686,43.686548,14503.0,13737,-79.312686,43.686548,WOODBINE STATION - WESTBOUND PLATFORM
226,-79.288985,43.694448,14501.0,13733,-79.288985,43.694448,VICTORIA PARK STATION - WESTBOUND PLATFORM
226,-79.288985,43.694448,14496.0,13734,-79.288985,43.694448,VICTORIA PARK STATION - EASTBOUND PLATFORM
204,-79.495092,43.650148,14526.0,13779,-79.495092,43.650148,OLD MILL STATION - WESTBOUND PLATFORM
220,-79.344787,43.680148,14507.0,13745,-79.344787,43.680148,PAPE STATION - WESTBOUND PLATFORM
204,-79.495092,43.650148,14471.0,13780,-79.495092,43.650148,OLD MILL STATION - EASTBOUND PLATFORM
163,-79.447693,43.724595,14433.0,13837,-79.447693,43.724595,YORKDALE STATION - NORTHBOUND PLATFORM
163,-79.447693,43.724595,14438.0,13838,-79.447693,43.724595,YORKDALE STATION - SOUTHBOUND PLATFORM
220,-79.344787,43.680148,14490.0,13746,-79.344787,43.680148,PAPE STATION - EASTBOUND PLATFORM
106,-79.385918,43.671043,14457.0,13863,-79.385918,43.671043,BLOOR STATION - NORTHBOUND PLATFORM
13465703,-79.434313454,43.6571226,13160.0,S_DMBL,-79.434315,43.657135,DUFFERIN MALL AT BLOOR ST. W.
13454197,-79.482069737,43.726642385,13402.0,S_KEWI,-79.482068,43.726626,KEELE ST. AT WILSON AVE.
13454827,-79.29492452,43.719317857,14116.0,S_PHCO,-79.294923,43.719301,PHARMACY AVE AT COMSTOCK AVE
14606950,-79.221072211,43.819698288,14967.0,S_STMO,-79.221071,43.819679,MORNINGSIDE AVE. & STAINES RD.
13447211,-79.186225546,43.768408999,14655.0,S_MLAW,-79.186221,43.768396,MORNINGSIDE AVE & LAWRENCE AVE
13462698,-79.4957082,43.676201328,14072.0,S_JAAL,-79.495703,43.676192,JANE ST AT ALLIANCE AVE
13467923,-79.374709353,43.641928695,13669.0,S_QQYO,-79.374704,43.641922,YONGE ST. AT QUEEN'S QUAY
13454806,-79.558922173,43.72311204,13357.0,S_IELM,-79.558917,43.723101,ISLINGTON AVE. AT ELMHURST DR.
14232506,-79.297422945,43.684535053,4297.0,9682,-79.297421,43.684505,GERRARD ST EAST AT OSBORNE AVE
13444973,-79.16069085,43.785301127,13440.0,S_LAME,-79.160685,43.785293,LAWSON RD. AT MEADOWVALE RD.
13459820,-79.296771644,43.689305049,15171.0,S_DFDS,-79.296765,43.689296,DANFORTH AVE & DAWES ROAD
13444084,-79.163565701,43.792487146,13243.0,S_ELMV,-79.163559,43.792479,ELLESMERE RD. AT MEADOWVALE RD.
13454337,-79.236019123,43.72203282,13429.0,S_KRSC,-79.236012,43.722026,ST. CLAIR AVE. AT KINGSTON RD.
13444687,-79.183257088,43.787851884,13104.0,S_CNEL,-79.18325,43.787844,CONLINS RD. AT ELLESMERE RD.
13454867,-79.240363427,43.718226344,13425.0,S_KRBR,-79.240356,43.718219,KINGSTON RD. AT BRIMLEY RD.
13450997,-79.218913538,43.743182014,13248.0,S_EMAR,-79.218906,43.743174,EGLINTON AVE. E. AT MARKHAM RD.
13444869,-79.188310594,43.78657849,13242.0,S_ELMT,-79.188303,43.786571,ELLESMERE RD. AT MILITARY TRAIL
13451513,-79.232053988,43.740260716,12992.0,S_BEEG,-79.232046,43.740253,BELLAMY RD. AT EGLINTON AVE. E.
13455179,-79.261334057,43.716525807,13757.0,S_SCKE,-79.261326,43.716519,ST.CLAIR AVE. E. AT KENNEDY RD.
13448868,-79.235267231,43.757721789,12994.0,S_BELA,-79.235259,43.757714,BELLAMY RD. AT LAWRENCE AVE. E.
13452476,-79.25810431,43.734530683,13520.0,S_MEGL,-79.258096,43.734523,MIDLAND AVE. AT EGLINTON AVE. E.
13442514,-79.2027244,43.808934294,13560.0,S_MNMC,-79.202716,43.808926,MORNINGSIDE AVE. AT MCLEVIN AVE.
13442521,-79.170811425,43.808376217,13791.0,S_SHMV,-79.170803,43.808368,MEADOWVALE RD. AT SHEPPARD AV. E.
13457893,-79.265192487,43.699929187,13002.0,S_BIHI,-79.265184,43.699922,BIRCHMOUNT RD AT HIGHVIEW AVE
13452119,-79.248084587,43.736696453,13033.0,S_BREG,-79.248076,43.736689,BRIMLEY RD. AT EGLINTON AVE. E.
13449204,-79.245422779,43.755548525,13507.0,S_MCLA,-79.245414,43.755541,MCCOWAN RD. AT LAWRENCE AVE. E.
13446514,-79.241759809,43.774334937,12993.0,S_BEEL,-79.241751,43.774327,BELLAMY RD. AT ELLESMERE RD.
13446212,-79.231756836,43.776436249,13540.0,S_MKEL,-79.231748,43.776429,ELLESMERE RD. AT MARKHAM RD.
13445760,-79.243842843,43.780154285,12990.0,S_BECO,-79.243834,43.780147,BELLAMY RD. AT CORPORATE DR.
13442606,-79.215595839,43.807799751,13774.0,S_SEBW,-79.215587,43.807792,SEWELLS AT BRENYON WAY
13443509,-79.217665862,43.798122393,13598.0,S_NSHE,-79.217657,43.798115,NEILSON RD. AT SHEPPARD AVE. E.
13462168,-79.384890021,43.677744968,1728.0,6335,-79.384882,43.677767,CRESCENT RD AT ROSEDALE RD WEST SIDE
13459028,-79.262333902,43.69304667,13424.0,S_KRBI,-79.262325,43.693039,KINGSTON RD. AT BIRCHMOUNT RD.
13456762,-79.268130023,43.706998942,13135.0,S_DABR,-79.268121,43.706992,BIRCHMOUNT RD. AT DANFORTH RD.
13452053,-79.246164069,43.737097293,13136.0,S_DAEG,-79.246155,43.73709,DANFORTH RD. AT EGLINTON AVE.
13449501,-79.255367207,43.753526949,13037.0,S_BRLW,-79.255358,43.753519,LAWRENCE AVE. E. AT BRIMLEY RD.
13455585,-79.27111724,43.714158194,13750.0,S_SCBI,-79.271108,43.714151,ST.CLAIR AVE. E. AT BIRCHMOUNT RD
13460017,-79.270918124,43.687759014,13430.0,S_KRWA,-79.270909,43.687772,KINGSTON RD. AT WARDEN AVE.
13441963,-79.215076388,43.818768167,13523.0,S_MFIN,-79.21507,43.818731,MORNINGSIDE AVE. AT OLD FINCH AVE.
13446827,-79.251498432,43.772142024,13241.0,S_ELMC,-79.251489,43.772135,ELLESMERE RD. AT MCCOWAN RD.
13445553,-79.23389047,43.781746655,13568.0,S_MPRG,-79.233881,43.781739,PROGRESS AVE. AT MARKHAM RD.
13449830,-79.265052497,43.751521702,13485.0,S_LWMD,-79.265043,43.751514,MIDLAND AVE. AT LAWRENCE AVE. E.
13444590,-79.237058519,43.789554466,13543.0,S_MKMI,-79.237049,43.789547,MILNER AVE. AT MARKHAM RD.
13453221,-79.277859535,43.729962108,12999.0,S_BIEG,-79.27785,43.729955,EGLINTON AVE. E. AT BIRCHMOUNT RD
13443955,-79.234931562,43.794662194,13662.0,S_PRSH,-79.234922,43.794655,PROGRESS AVE. AT SHEPPARD AVE. E.
13442839,-79.226687592,43.805182688,13550.0,S_MLTP,-79.226678,43.805175,MCLEVIN AVE. AT TAPSCOTT RD.
13462163,-79.539014642,43.67983519,13361.0,S_ISEG,-79.539005,43.679829,ISLINGTON AVE. AT EGLINTON AVE. W
13451185,-79.632460652,43.747759822,14973.0,S_ALCP,-79.632451,43.747752,ALBION RD. AT CLAIREPORT CRES.
13455284,-79.28276667,43.716181333,13904.0,S_WAFA,-79.282757,43.716174,WARDEN AVE. AT FAIRFAX CRES.
13445175,-79.256475693,43.785381536,13509.0,S_MCMI,-79.256466,43.785374,MCCOWAN RD. AT MILNER AVE.
13450484,-79.284836745,43.74751869,13435.0,S_LABR,-79.284827,43.747512,LAWRENCE AVE. AT BIRCHMOUNT RD.
13458963,-79.277290756,43.693646835,13145.0,S_DDAN,-79.277281,43.693639,DANFORTH AVE AT DANFORTH RD
13458308,-79.274835777,43.697177449,13915.0,S_WDNF,-79.274826,43.69717,WARDEN AVE. AT DANFORTH RD.
13456330,-79.290930923,43.709851364,13763.0,S_SCPH,-79.290921,43.709844,ST.CLAIR AVE. E. AT PHARMACY AVE.
13441850,-79.206202905,43.821053255,13473.0,S_LROF,-79.206193,43.821045,LITTLE'S RD. AT OLD FINCH
13461728,-79.298023939,43.678885382,13492.0,S_MAKI,-79.298014,43.678878,MAIN ST. AT KINGSTON RD.
13443499,-79.241041978,43.798555592,13544.0,S_MKNG,-79.241032,43.798548,MARKHAM RD. AT NUGGETT AVE.
13444901,-79.268312034,43.787578239,13780.0,S_SHBR,-79.268302,43.787571,SHEPPARD AVE. E. AT BRIMLEY RD.
14074105,-79.291464067,43.726996283,13225.0,S_EGLB,-79.291454,43.726989,EGLINTON AVE. E. AT LEBOVIC AVE.
13442174,-79.237137058,43.814217802,13857.0,S_TAFI,-79.237127,43.81421,TAPSCOTT RD. AT FINCH AVE. E.
13453588,-79.287616161,43.727846986,13236.0,S_EGWA,-79.287606,43.72784,EGLINTON AVE. E. AT WARDEN AVE.
14249068,-79.228068244,43.829343155,13773.0,S_SEAS,-79.228058,43.829336,SEASONS DR. AT CANOE CRES.
13447843,-79.281078252,43.76580202,13239.0,S_ELKE,-79.281068,43.765795,ELLESMERE RD. AT KENNEDY RD.
13463494,-79.305775296,43.668757076,13683.0,S_QUWB,-79.305765,43.668749,QUEEN ST.E. AT WOODBINE AVE.
13442631,-79.232633339,43.807651437,13856.0,S_TACR,-79.232623,43.807644,TAPSCOTT RD. AT CROW TRAIL
13450818,-79.294730397,43.745376512,13445.0,S_LAWA,-79.29472,43.74537,LAWRENCE AVE. E. AT WARDEN AVE.
13457585,-79.296930434,43.702256848,13316.0,S_GOWR,-79.29692,43.70225,GOWER ST. AT DAWES RD.
13447496,-79.271110442,43.767924951,13521.0,S_MELL,-79.2711,43.767918,MIDLAND AVE. E. AT ELLESMERE RD.
13461342,-79.284060442,43.680811436,13896.0,S_VPKR,-79.28405,43.680804,VICTORIA PK. AVE. AT KINGSTON RD.
13459236,-79.315855497,43.692805041,13940.0,S_WMOR,-79.315845,43.692798,WOODBINE AVE. AT MORTIMER AVE.
13452791,-79.289730523,43.733080557,12998.0,S_BEWA,-79.28972,43.733074,BERTRAND AVE. AT WARDEN AVE.
13463787,-79.31259357,43.66724465,13408.0,S_KGTN,-79.312583,43.667237,QUEEN AT KINGSTON
13460223,-79.286576583,43.686904951,13306.0,S_GEVP,-79.286566,43.686897,GERRARD ST. E. AT VICTORIA PK.AV
14038170,-79.292218325,43.814578958,14724.0,S_MDMN,-79.292208,43.814564,MIDLAND AVE AT MCNICOLL
13459445,-79.288358609,43.691232336,13141.0,S_DAVP,-79.288348,43.691225,DANFORTH AVE AT VICTORIA PARK AVE
13462643,-79.307926627,43.673928506,13416.0,S_KIWO,-79.307916,43.673921,KINGSTON RD. AT WOODBINE AVE.
13445476,-79.288263729,43.783286859,13420.0,S_KNSH,-79.288253,43.78328,KENNEDY RD. AT SHEPPARD AVE. E.
13444619,-79.25883875,43.789620159,13514.0,S_MCSH,-79.258828,43.789613,MCCOWAN RD. AT SHEPPARD AVE. E.
13448199,-79.291362823,43.763427113,13000.0,S_BIEL,-79.291352,43.76342,BIRCHMOUNT RD. AT ELLESMERE RD.
20364357,-79.251020568,43.833451834,15030.0,S_SEMK,-79.25101,43.833436,MARKHAM AND SELECT
13448838,-79.310188901,43.759031293,13643.0,S_PHEL,-79.310178,43.759024,PHARMACY AVE. AT ELLESMERE RD.
13448519,-79.300751924,43.761193442,13247.0,S_ELWA,-79.300741,43.761187,ELLESMERE RD. AT WARDEN AVE.
301,-79.270436,43.750475,14248.0,14729,-79.270435,43.750534,LAWRENCE EAST STATION
13454107,-79.302645014,43.724723021,13234.0,S_EGVP,-79.302634,43.724716,EGLINTON AVE. E. AT VICTORIA PARK
13456719,-79.311017029,43.707904549,13132.0,S_CURI,-79.311006,43.707898,CURITY AVE. AT O'CONNOR DR.
13453978,-79.297515057,43.725651096,13642.0,S_PHEG,-79.297504,43.725644,PHARMACY AVE. AT EGLINTON AVE. E.
13443810,-79.261514068,43.796124386,13504.0,S_MCCO,-79.261503,43.796117,COMMANDER BLVD. AT MCCOWAN RD.
13445219,-79.278570092,43.785348047,13574.0,S_MSSH,-79.278559,43.785341,MIDLAND AVE. AT SHEPPARD AVE. E.
13459805,-79.329803108,43.689881188,13712.0,S_ROOS,-79.329792,43.689874,ROOSEVELT RD. AT MORTIMER AVE.
13441620,-79.251189148,43.836598984,13545.0,S_MKST,-79.251178,43.836592,MARKHAM AT STEELES
13442502,-79.257699172,43.809888126,13531.0,S_MIFI,-79.257688,43.809881,MIDDLEFIELD RD. AT FINCH AVE. E.
13461602,-79.312648642,43.679828171,1268.0,1123,-79.312659,43.679852,GERRARD ST EAST AT KINGSMOUNT PARK RD
13443575,-79.273366244,43.798407447,13345.0,S_HUBR,-79.273355,43.798401,HUNTINGWOOD DR. AT BRIMLEY RD.
13447673,-79.302808266,43.767207708,13522.0,S_METR,-79.302797,43.767201,METROPOLITAN RD. AT WARDEN AVE.
13454202,-79.325299273,43.724399497,13238.0,S_EGWY,-79.325288,43.724393,EGLINTON AVE. E. AT WYNFORD RD.
13454288,-79.302100282,43.723380976,13897.0,S_VPOC,-79.302089,43.723374,VICTORIA PK. AT O'CONNOR DR.
13457092,-79.312836303,43.705396177,13761.0,S_SCOC,-79.312825,43.70539,ST.CLAIR AVE. E. AT O'CONNOR DR.
13459010,-79.328018297,43.694136535,13075.0,S_CCCB,-79.328007,43.69413,COSBURN AVE. AT COXWELL AVE.
13463183,-79.328022357,43.670923069,13304.0,S_GERR,-79.328011,43.670916,GERRARD ST. E. AT GREENWOOD AVE.
13441760,-79.24605738,43.824384949,13359.0,S_IRON,-79.246046,43.824378,MCNICOLL AVE. AT IRONSIDE CRES.
13459689,-79.326574413,43.690587219,13102.0,S_CMOR,-79.326563,43.69058,COXWELL AVE. AT MORTIMER AVE.
13441867,-79.259180405,43.821529588,13508.0,S_MCMA,-79.259169,43.821522,MCNICOLL AVE. AT MAYBROOK DR.
13445746,-79.298106451,43.781054406,13779.0,S_SHBI,-79.298095,43.781048,BIRCHMOUNT RD. AT SHEPPARD AVE. E
13449013,-79.315245441,43.757869425,13898.0,S_VPPV,-79.315234,43.757862,VICTORIA PK AT PARKWOOD/ELLESMERE
13453431,-79.328399475,43.729354901,13108.0,S_CONC,-79.328388,43.729349,CONCORDE PLACE AT CONCORDE GATE
13441926,-79.262095491,43.820120242,13534.0,S_MIMC,-79.262084,43.820113,MCNICOLL AVE. AT MIDDLEFIELD RD.
13451212,-79.304645575,43.743242517,13444.0,S_LAPH,-79.304634,43.743236,LAWRENCE AVE. E. AT PHARMACY AVE.
13443617,-79.269626623,43.798112065,13346.0,S_HUCO,-79.269615,43.798105,HUNTNGWOOD DR. AT COMMANDER BLVD.
13441801,-79.25144465,43.823284968,13211.0,S_DYMC,-79.251433,43.823278,DYNAMIC DR. AT MCNICOLL AVE.
13445899,-79.32539531,43.780352015,14336.0,S_VPHU,-79.325407,43.780347,VICTORIA PARK AND HUNTINGWOOD
13448397,-79.33530273,43.762589427,13714.0,S_ROUP,-79.335291,43.762583,ROYWOOD AT UNDERPASS GATE
13447991,-79.330030721,43.765555144,13719.0,S_ROYW,-79.330019,43.765548,ROYWOOD DR AND FENSIDE DR.
13451412,-79.309793757,43.742144039,13481.0,S_LVPK,-79.309782,43.742137,LAWRENCE AV. E AT VICTORIA PK. AV
13455296,-79.349979797,43.717098739,13453.0,S_LEEG,-79.349968,43.717092,LESLIE ST. AT EGLINTON AVE. E.
164,-79.450792,43.734547,14319.0,14802,-79.450798,43.734603,WILSON STATION
13448168,-79.322603839,43.764062506,13451.0,S_LDRO,-79.322592,43.764056,LYNEDOCK AT ROYWOOD
13458943,-79.343116838,43.6947227,13159.0,S_DLOC,-79.343105,43.694716,DONLANDS AVE. AT O'CONNOR DR.
13456228,-79.358522857,43.711465669,13926.0,S_WIBC,-79.358511,43.711459,WICKSTEED AVE. AT BRENTCLIFFE RD.
13454752,-79.338873881,43.720500805,13171.0,S_DOEG,-79.338862,43.720494,EGLINTON AVE. E. AT DON MILLS RD.
13463478,-79.33560892,43.669250838,13320.0,S_GRJO,-79.335597,43.669244,GERRARD ST.E. AT JONES AVE.
13446075,-79.307905915,43.778731095,13797.0,S_SHWA,-79.307894,43.778724,SHEPPARD AVE. E. AT WARDEN AVE.
13442866,-79.277400939,43.80570624,13026.0,S_BMFI,-79.277389,43.8057,BRIMLEY RD. AT FINCH AVE. E.
13456414,-79.334394981,43.70999645,13629.0,S_OVDM,-79.334383,43.70999,OVERLEA BLVD. AT DON MILLS RD.
13454893,-79.327779065,43.719375974,13148.0,S_DENI,-79.327767,43.71937,LINKWOOD AT ST. DENNIS
13446996,-79.321518102,43.771941442,13129.0,S_CSVP,-79.321506,43.771935,CONSUMERS RD. AT VICTORIA PK. AVE
13446551,-79.323017109,43.775244616,13899.0,S_VPSH,-79.323005,43.775238,VICTORIA PK. AT SHEPPARD AVE. E.
13464177,-79.352624092,43.665486616,13035.0,S_BRGE,-79.352612,43.665479,BROADVIEW AT GERRARD
13455899,-79.364802153,43.71356588,13226.0,S_EGLD,-79.36479,43.71356,EGLINTON AVE. E. AT LAIRD DR.
13446373,-79.317764148,43.776514782,13793.0,S_SHPH,-79.317752,43.776508,SHEPPARD AVE. E. AT PHARMACY AVE.
13452372,-79.346546177,43.736507616,13208.0,S_DWLW,-79.346534,43.736501,DONWAY WEST AT LAWRENCE
13457237,-79.349877201,43.70500665,13863.0,S_THRN,-79.349865,43.705,THORNCLIFFE PK. AT OVERLEA BLVD.
13449541,-79.352035229,43.754698664,13458.0,S_LESM,-79.352023,43.754692,LESMILL RD. AT YORK MILLS RD.
13441995,-79.26738454,43.818954421,4619.0,12050,-79.267386,43.81902,MCNICOLL AVE AT WHITE HEATHER BLVD
13465231,-79.349852232,43.658878341,13040.0,S_BRQU,-79.34984,43.658871,BROADVIEW AT QUEEN
13444601,-79.302295255,43.790440799,13003.0,S_BIHU,-79.302283,43.790434,HUNTINGWOOD DR. AT BIRCHMOUNT RD.
13464674,-79.402109266,43.663052328,13816.0,S_SPHD,-79.402097,43.663045,SPADINA RD. AT HARBORD ST.
13442643,-79.26650628,43.808026677,13506.0,S_MCFI,-79.266494,43.80802,MCCOWAN RD. AT FINCH AVE. E.
13441734,-79.261440267,43.825623455,13494.0,S_MANE,-79.261428,43.825616,MAYBROOK DR. AT NEWMILL G.
13441674,-79.261887291,43.82810126,13565.0,S_MPAS,-79.261875,43.828094,MAYBROOK DR. AT PASSMORE AVE.
13444019,-79.293451361,43.795150796,13347.0,S_HUKE,-79.293439,43.795144,HUNTINGWOOD DR. AT KENNEDY RD.
13459249,-79.350291418,43.693241761,13605.0,S_OCPA,-79.350279,43.693235,O'CONNOR DR. AT PAPE AVE.
13441635,-79.267962521,43.832704306,13536.0,S_MIST,-79.26795,43.832697,MIDDLEFIELD AT STEELES
13443562,-79.305981545,43.798998223,13001.0,S_BIFI,-79.305969,43.798992,BIRCHMOUNT RD. AT FINCH AVE. E.
13465795,-79.364462546,43.655615728,13680.0,S_QUPA,-79.36445,43.655608,QUEEN ST. E. AT PARLIMENT AVE.
13443046,-79.286293645,43.803751827,13516.0,S_MDFI,-79.286281,43.803745,MIDLAND AT FINCH
13459931,-79.348815657,43.689432655,13109.0,S_COPA,-79.348803,43.689426,PAPE AVE. AT COSBURN AVE.
13442651,-79.311168671,43.808637958,13005.0,S_BIMC,-79.311156,43.808632,BIRCHMOUNT RD. AT MCNICOLL AVE.
13465550,-79.479433344,43.658583493,5666.0,7065,-79.479429,43.658518,RUNNYMEDE RD AT MACGREGOR AVE
13466312,-79.375476665,43.652466163,13090.0,S_CHRM,-79.375464,43.652459,CHURCH ST. AT RICHMOND ST. E.
13446581,-79.331236717,43.77509959,13112.0,S_COSH,-79.331224,43.775093,SHEPPARD AVE. E. AT CONSUMERS RD.
13466516,-79.374946712,43.651185628,12937.0,S_ADCH,-79.374934,43.651178,ADELAIDE AT CHURCH
13466241,-79.363245746,43.652729989,13652.0,S_PKNG,-79.363233,43.652723,PARLIAMENT AT KING
13448536,-79.347229808,43.761751872,13161.0,S_DMIL,-79.347217,43.761745,DUNCAN MILLS AT DON MILLS RD.
13462724,-79.396605801,43.674724924,13203.0,S_DVAV,-79.396593,43.674717,DAVENPORT RD. AT AVENUE RD.
13454398,-79.442843588,43.724534848,6860.0,6928,-79.442849,43.724471,RANEE AVE AT MIKADO AVE
13464403,-79.367981848,43.664285907,13069.0,S_CARL,-79.367969,43.664279,CARLTON ST. AT PARLIAMENT ST.
13448770,-79.368558862,43.760299808,12979.0,S_BANN,-79.368546,43.760293,BANNATYNE DR. AT DAVEAN DR.
13460600,-79.347438893,43.685776098,13655.0,S_PMOR,-79.347426,43.685769,PAPE AVE. AT MORTIMER AVE.
13452717,-79.355979903,43.734535674,13455.0,S_LELW,-79.355967,43.734529,LESLIE ST. AT LAWRENCE AVE. E.
13466482,-79.368261941,43.651277649,13406.0,S_KGSB,-79.368249,43.65127,KING ST. E AT SHERBOURNE ST.
13452469,-79.381907985,43.736407519,13658.0,S_POST,-79.381895,43.736401,POST RD. AT BAYVIEW AVE.
13441649,-79.275195993,43.831045362,13840.0,S_STMC,-79.275183,43.831039,STEELES AVE. E. AT MCCOWAN RD.
13442867,-79.320975009,43.806349236,13907.0,S_WAMC,-79.320962,43.806343,MCNICOLL AT WARDEN
13456838,-79.410435544,43.708573936,13628.0,S_AVOS,-79.410423,43.708594,AVENUE RD & ROSELAWN
13464425,-79.572422104,43.666837785,5452.0,2225,-79.572432,43.666885,THE EAST MALL AT WEST DEANE VALLEY RD
13464096,-79.378347046,43.666285308,13385.0,S_JVWL,-79.378334,43.666278,JARVIS ST. AT WELLESLEY AVE. E.
13443837,-79.315766111,43.796772994,13905.0,S_WAFI,-79.315753,43.796767,WARDEN AVE. AT FINCH AVE. E.
13466150,-79.369148083,43.653378002,13794.0,S_SHRM,-79.369135,43.65337,SHERBOURNE ST. AT RICHMOND ST. E.
13464912,-79.372236125,43.661226905,13305.0,S_GESH,-79.372223,43.66122,GERRARD ST. E. AT SHERBOURNE ST.
13462285,-79.443081164,43.677961457,13751.0,S_SCDF,-79.443068,43.677954,ST. CLAIR AVE. W. AT DUFFERIN ST.
13453281,-79.458918743,43.732092618,15256.0,S_DUWI,-79.458906,43.732073,DUFFERIN ST. & WILSON AVE.
13442033,-79.304753198,43.818447428,13637.0,S_PASS,-79.30474,43.818441,KENNEDY RD. AT PASSMORE AVE.
13467011,-79.370932182,43.648225519,13382.0,S_JVES,-79.370919,43.648218,JARVIS ST. AT THE ESPLANADE
13441903,-79.316925221,43.821392698,13007.0,S_BIST,-79.316912,43.821387,BIRCHMOUNT RD. AT STEELES AVE. E.
13463030,-79.414391202,43.673150259,12974.0,S_BADP,-79.414378,43.673143,BATHURST ST. AT DUPONT ST.
13462162,-79.37517521,43.677626853,13772.0,S_SDGR,-79.375162,43.67762,SOUTH DR. AT GLEN RD.
13449822,-79.359970231,43.752954496,13967.0,S_YLES,-79.359957,43.752948,YORK MILLS RD. AT LESLIE ST.
13459852,-79.383328235,43.690372039,13760.0,S_SCMP,-79.383315,43.690365,ST.CLAIR AVE E. AT MT.PLEASANT RD
13462552,-79.402594243,43.675810015,13146.0,S_DDUP,-79.402581,43.675803,DAVENPORT RD. AT DUPONT ST.
13441919,-79.294934266,43.820707597,13634.0,S_PAMD,-79.294921,43.820701,PASSMORE AVE. AT MIDLAND RD.
13444966,-79.335024323,43.788026231,13042.0,S_BRVH,-79.335011,43.78802,BRIAN DR. AT VAN HORNE AVE.
13457532,-79.364389329,43.703574028,13583.0,S_MWSL,-79.364376,43.703568,MILLWOOD RD. AT SUTHERLAND DR.
13456348,-79.377158372,43.711036573,13052.0,S_BVEG,-79.377145,43.711031,EGLINTON AVE. E. AT BAYVIEW AVE.
13444158,-79.325969368,43.794331429,13644.0,S_PHFI,-79.325956,43.794325,PHARMACY AVE. AT FINCH AVE. E.
13444318,-79.331412424,43.793106458,13894.0,S_VPFI,-79.331399,43.7931,VICTORIA PK. AVE AT FINCH AVE. E.
13463664,-79.43276043,43.669702116,13187.0,S_DUDO,-79.432747,43.669695,DUPONT ST. AT DOVERCOURT RD.
13461271,-79.41830144,43.683167498,13048.0,S_BSTC,-79.418288,43.68316,BATHURST ST. AT ST.CLAIR AVE.W.
13463585,-79.429019476,43.670032069,13196.0,S_DUOS,-79.429006,43.670025,DUPONT ST. AT OSSINGTON AVE.
13441740,-79.297332525,43.825950474,13530.0,S_MIDS,-79.297319,43.825944,MIDLAND AVE. AT STEELES AVE. E
13458625,-79.371738546,43.696749999,13055.0,S_BVMO,-79.371725,43.696744,BAYVIEW AVE. AT MOORE AVE.
13461950,-79.43568954,43.679592021,13602.0,S_OAK,-79.435676,43.679585,OAKWOOD AVE. AT ST.CLAIR AVE.W.
13467722,-79.402705536,43.643926314,13009.0,S_BKIN,-79.402692,43.643918,BATHURST AT KING
13442003,-79.32443664,43.81963118,13950.0,S_WSTE,-79.324423,43.819625,STEELES AVE. E. AT WARDEN AVE.
13457650,-79.374133726,43.702999783,13204.0,S_DVBV,-79.37412,43.702994,DAVISVILLE AVE. AT BAYVIEW AVE.
13468745,-79.493427727,43.63615695,13636.0,S_PARK,-79.493414,43.636151,BERRY RD. AT PARKLAWN RD.
13462648,-79.423093759,43.675561719,13084.0,S_CHDV,-79.42308,43.675555,CHRISTIE ST. AT DAVENPORT RD.
13458404,-79.386478765,43.698174552,13577.0,S_MTMP,-79.386465,43.698168,MERTON AND MT. PLEASANT
13462422,-79.415786758,43.676730247,13206.0,S_DVNP,-79.415773,43.676723,DAVENPORT RD. AT BATHURST ST.
13460587,-79.438693767,43.687134,13697.0,S_RGOK,-79.43868,43.687127,ROGERS RD. AT OAKWOOD AVE.
13450611,-79.384155779,43.748059355,13060.0,S_BYYM,-79.384142,43.748053,BAYVIEW AVE. AT YORK MILLS RD.
13450611,-79.384155779,43.748059355,13968.0,S_YMBV,-79.384142,43.748053,YORK MILLS RD. AT BAYVIEW AVE.
13442279,-79.34855579,43.813969777,13846.0,S_STWB,-79.348542,43.813964,WOODBINE AVE. AT STEELES AVE. E.
13443090,-79.336316815,43.804085647,13515.0,S_MCVP,-79.336303,43.80408,MCNICOLL AVE. AT VICTORIA PK. AVE
13463350,-79.448303801,43.67155746,13438.0,S_LADA,-79.44829,43.67155,LANSDOWNE AVE. AT DAVENPORT RD.
13468374,-79.427374816,43.638960482,13150.0,S_DFKG,-79.427361,43.638953,DUFFERIN AT KING
13470353,-79.493165851,43.603651612,13718.0,S_ROYA,-79.493152,43.603645,ROYAL YORK AT LAKE SHORE BLVD.
13465689,-79.516303858,43.658304217,13739.0,S_RYDU,-79.51629,43.658298,ROYAL YORK RD. AT DUNDAS ST. W.
13465784,-79.358415852,43.655582152,15365.0,S_SUKI,-79.358402,43.655575,KING & SUMACH
13442179,-79.341317897,43.815650752,13902.0,S_VSTL,-79.341304,43.815644,VICTORIA PK. AT STEELES AVE. E.
13468053,-79.415018881,43.641437148,13415.0,S_KISH,-79.415005,43.641429,KING ST. W. AT SHAW ST.
13444423,-79.354736954,43.792660486,13279.0,S_FIDM,-79.354723,43.792654,FINCH AVE. E. AT DON MILLS RD.
13442528,-79.36077696,43.811184151,13828.0,S_STDM,-79.360763,43.811178,STEELES AVE. E. AT DON MILLS RD.
13457359,-79.406132971,43.705105105,13232.0,S_EGOR,-79.406119,43.705099,EGLINTON AV. W. AT ORIOLE PARKWAY
13463516,-79.453256966,43.670719509,13137.0,S_DASY,-79.453243,43.670713,DAVENPORT RD. AT SYMINGTON AVE.
13470120,-79.496750053,43.612235918,13535.0,S_MIRK,-79.496736,43.612229,MIMICO AT ROYAL YORK RD.
13463893,-79.483564058,43.668993604,13732.0,S_RUSC,-79.48355,43.668987,RUNNYMEDE RD. AT ST.CLAIR AVE.W.
13444761,-79.368067064,43.790012097,13454.0,S_LEFI,-79.368053,43.790005,LESLIE ST. AT FINCH AVE. E.
13462582,-79.450601076,43.676304204,13805.0,S_SLAN,-79.450587,43.676297,LANSDOWNE AVE.AT ST.CLAIR AVE.W.
13457449,-79.408516109,43.704598461,12962.0,S_AVEG,-79.408502,43.704593,AVENUE RD. AT EGLINTON AVE. W.
13457453,-79.388571111,43.704292777,13571.0,S_MRMP,-79.388557,43.704287,MANOR RD. AND MT. PLEASANT
13456819,-79.390197174,43.708407749,13231.0,S_EGMT,-79.390183,43.708402,EGLINTON AVE E. AT MT. PLEASANT
13465319,-79.480015176,43.660060126,13725.0,S_RUAN,-79.480001,43.660054,RUNNYMEDE RD. AT ANNETTE ST.
14248958,-79.230272674,43.829899969,8145.0,13908,-79.230259,43.829879,SEASONS DR AT GROSBEAK CRES
13466425,-79.432562175,43.652569192,13106.0,S_CODU,-79.432548,43.652562,COLLEGE ST. AT DUFFERIN ST.
13467715,-79.418861992,43.644204298,13624.0,S_OSSI,-79.418876,43.64419,OSSINGTON AT QUEEN
13467983,-79.428644194,43.642208421,13674.0,S_QUDF,-79.42863,43.642201,QUEEN ST. W. AT DUFFERIN ST.
13466818,-79.526398228,43.651361511,13360.0,S_ISDU,-79.526384,43.651356,ISLINGTON AVE. AT DUNDAS ST. W.
13463871,-79.501647229,43.669372161,13755.0,S_SCFO,-79.501633,43.669366,SCARLETT RD. AT FOXWELL ST.
13460901,-79.446117227,43.685566389,13709.0,S_RODU,-79.446103,43.68556,ROGERS RD. AT DUFFERIN ST.
13464451,-79.491186227,43.665734711,13189.0,S_DUJA,-79.491172,43.665728,DUNDAS ST. W. AT JANE ST.
13463080,-79.463050228,43.673536,13842.0,S_STOW,-79.463036,43.673529,ST. CLAIR AVE. W AT OLD WESTON RD
13466826,-79.439731227,43.650168414,13156.0,S_DLAN,-79.439717,43.650161,LANSDOWNE AVE. AT DUNDAS ST.
13469508,-79.502632289,43.626336353,13682.0,S_QURY,-79.502618,43.62633,THE QUEENSWAY AT ROYAL YORK RD.
13458104,-79.386973326,43.70031279,13205.0,S_DVMP,-79.386959,43.700307,DAVISVILLE RD. AT MT PLEASANT RD
13456902,-79.392819367,43.707861153,13254.0,S_ERED,-79.392805,43.707855,EGLINTON AVE. E. AT REDPATH AVE.
13442682,-79.359012383,43.808948656,13290.0,S_FMDM,-79.358998,43.808943,FRESHMEADOW DR. AT DON MILLS RD.
13461687,-79.476751401,43.681609012,13717.0,S_ROWS,-79.476737,43.681602,ROGERS RD. AT WESTON RD.
13464191,-79.446461409,43.66672551,13198.0,S_DUPT,-79.446447,43.666718,DUPONT ST. AT LANSDOWNE AVE.
13445452,-79.392147426,43.785005601,13053.0,S_BVFI,-79.392133,43.784999,BAYVIEW AVE. AT FINCH AVE. E.
13468436,-79.446219418,43.63871533,13720.0,S_RQEN,-79.446205,43.638708,RONC. AT QUEEN
13463232,-79.467623432,43.672534507,13400.0,S_KESC,-79.467609,43.672528,KEELE ST. AT ST.CLAIR AVE. W.
13464510,-79.499207448,43.665524171,13749.0,S_SCAR,-79.499193,43.665518,SCARLETT RD. AT DUNDAS ST. W.
13460576,-79.401495486,43.686640698,12967.0,S_AVSC,-79.401481,43.686634,ST. CLAIR AVE. W. AT AVENUE RD.
13451068,-79.396440498,43.745453387,13880.0,S_UPHI,-79.396426,43.745447,UPPER HIGHLAND CR. AT YORK MILLS
13449877,-79.404691489,43.753271133,13878.0,S_UPCA,-79.404677,43.753264,UPPER CANADA DR. AT LORD SEATON
13454662,-79.415609513,43.722255597,12966.0,S_AVLW,-79.415595,43.72225,AVENUE RD. AT LAWRENCE AVE. W.
13457863,-79.419108562,43.702351726,13814.0,S_SPEG,-79.419094,43.702346,EGLINTON AVE. W. AT SPADINA RD.
13464592,-79.458777591,43.66448603,13188.0,S_DUDU,-79.458763,43.664479,DUNDAS ST. W. AT DUPONT AVE.
13464592,-79.458777591,43.66448603,13183.0,S_DUAN,-79.458763,43.664479,DUNDAS ST. W. AT ANNETTE ST.
13464406,-79.499265622,43.66607327,13765.0,S_SCST,-79.499251,43.666067,SCARLETT RD. AT ST. CLAIR AVE. W.
13459836,-79.403017635,43.690782127,12964.0,S_AVLD,-79.403003,43.690776,AVENUE RD. AT LONSDALE RD.
13468605,-79.469914649,43.637210589,13916.0,S_WDQU,-79.4699,43.637204,WINDMERE AT QSWY
13464092,-79.444179688,43.667213766,13250.0,S_EMDU,-79.444165,43.667207,EMERSON AVE. AT DUPONT AVE.
13452678,-79.408946192,43.735527826,15103.0,15277,-79.408953,43.735599,YONGE BLVD AT BROOKE AVE
13448880,-79.389246696,43.759917886,13061.0,S_C&FW,-79.389232,43.759911,CARLUKE CR. AT FIFESHIRE RD.W.
13464461,-79.482105747,43.665579272,13199.0,S_DURU,-79.482091,43.665573,DUNDAS ST. W. AT RUNNYMEDE RD.
13461384,-79.458021738,43.683095298,13707.0,S_ROCA,-79.458007,43.683088,ROGERS RD AT CALEDONIA RD.
13464483,-79.519648765,43.66595386,12952.0,S_ANRY,-79.519634,43.665948,ANGLESEY BLVD. AT ROYAL YORK RD.
13451789,-79.415226767,43.741287905,13942.0,S_WNYB,-79.415212,43.741281,WILSON AVE. AT YONGE BLVD.
13464438,-79.464557781,43.665404354,13190.0,S_DUKE,-79.464543,43.665398,DUNDAS ST. W. AT KEELE ST.
13445882,-79.407105781,43.781625546,13303.0,S_FWLL,-79.407091,43.781619,FINCH AVE. E. AT WILLOWDALE RD.
13450799,-79.507195239,43.748473067,6693.0,2664,-79.507191,43.748395,GRANDRAVINE DR AT FUTURA DR
13464218,-79.491767788,43.667184902,13373.0,S_JASC,-79.491753,43.667178,JANE ST. AT ST.CLAIR AVE.W.
13453533,-79.438237855,43.73027786,13689.0,S_RAJH,-79.438223,43.730272,RAJAH AVE. AT WASDALE AVE.
13464439,-79.470390857,43.665481973,13193.0,S_DUND,-79.470376,43.665475,DUNDAS ST. WEST AT HIGH PARK BLVD
13469783,-79.500396929,43.621012253,13265.0,S_EVRY,-79.500382,43.621006,EVANS AVE. AT ROYAL YORK RD.
13458084,-79.425561957,43.700992517,13219.0,S_EGBA,-79.425547,43.700986,EGLINTON AVE. W. AT BATHURST ST.
13459036,-79.450278981,43.695691999,13222.0,S_EGDF,-79.450264,43.695686,EGLINTON AVE. W. AT DUFFERIN ST.
13443870,-79.420084,43.79799966,13958.0,S_YGST,-79.420069,43.797994,YONGE ST.AT STEELES AVE.
13457667,-79.460234036,43.704122392,3697.0,11136,-79.460219,43.704118,LANSDOWNE AVE AT TYCOS DR
13443242,-79.39623006,43.803270124,13049.0,S_BSTL,-79.396215,43.803264,BAYVIEW AVE. AT STEELES AVE. E.
13461228,-79.498823083,43.684476407,13369.0,S_JAEG,-79.498808,43.68447,JANE ST. AT EGLINTON AVE. W
13466116,-79.42270507,43.654400252,13621.0,S_OSCO,-79.42269,43.654393,OSSINGTON AT COLLEGE
13461619,-79.467675092,43.681895353,13715.0,S_ROWE,-79.46766,43.681889,ROGERS RD. AT OLD WESTON RD.
13452017,-79.42164712,43.739871726,13925.0,S_WIAV,-79.421632,43.739865,WILSON AVE. W. AT AVENUE RD.
13456031,-79.454751125,43.7140869,13157.0,S_DLAW,-79.454736,43.71408,DUFFERIN ST. AT LAWRENCE AVE. W.
13455135,-79.429816144,43.719258979,12978.0,S_BALW,-79.429801,43.719253,BATHURST ST. AT LAWRENCE AVE W.
13457350,-79.452923162,43.705772845,13871.0,S_TYDU,-79.452908,43.705766,TYCOS DR. AT DUFFERIN ST.
13468486,-79.45350517,43.638324135,13468.0,S_LKPS,-79.45349,43.638317,LAKESHORE BLVD. W. AT PARKSIDE DR
13465772,-79.466850203,43.657227649,13311.0,S_GLLK,-79.466835,43.657221,GLENLAKE AT HIGH PARK BLVD.
13445047,-79.433113237,43.788822743,13315.0,S_GOUL,-79.433098,43.788817,GOULDING AVE. AT CACTUS AVE.
13457799,-79.41737923,43.702719518,13221.0,S_EGCH,-79.417364,43.702713,EGLINTON AVE. W. AT CHAPLIN CRES.
13442747,-79.372508245,43.808507954,13838.0,S_STLE,-79.372493,43.808502,LESLIE ST. AT STEELES AVE. E.
13457395,-79.426372247,43.705191909,13701.0,S_RLBA,-79.426357,43.705186,ROSELAWN AVE. AT BATHURST ST.
13462567,-79.48937025,43.676906888,13705.0,S_ROAL,-79.489355,43.6769,ROCKCLIFF BLVD. AT ALLIANCE AVE.
13455028,-79.441022311,43.720127122,13884.0,S_VARN,-79.441007,43.720121,VARNA DR. AT FLEMINGTON RD.
13446584,-79.430255343,43.776493999,13299.0,S_FSEN,-79.43024,43.776488,FINCH AVE. W. AT SENLAC RD.
13461587,-79.471598344,43.682136194,13711.0,S_ROKE,-79.471583,43.68213,ROGERS RD AT KEELE ST.
13452437,-79.434005363,43.737354505,13059.0,S_BWIL,-79.43399,43.737348,BATHURST ST. AT WILSON AVE.
13466915,-79.539395411,43.650977958,13409.0,S_KIBN,-79.53938,43.650972,KIPLING AVE. AT BURNHAMTHORPE RD.
13461263,-79.504218431,43.68438156,13252.0,S_EMMT,-79.504203,43.684376,EMMETT AVE AT EGLINTON AVE. W.
13470130,-79.515825419,43.612084808,13381.0,S_JUDS,-79.51581,43.612078,JUDSON RD. AT HORNER AVE.
13459347,-79.486106433,43.694611822,13023.0,S_BLTR,-79.486091,43.694606,BLACK CREEK DR. AT TRETHEWEY DR.
13456244,-79.428147428,43.712331421,12977.0,S_BAGL,-79.428132,43.712325,BATHURST ST. AT GLENCAIRN AVE.
13469914,-79.511328449,43.618393334,13263.0,S_EVIS,-79.511313,43.618387,EVANS AVE. AT ISLINGTON AVE.
13445250,-79.417350458,43.787068778,13131.0,S_CUMM,-79.417335,43.787063,YONGE AT CUMMER/DREWRY
13458706,-79.442793468,43.697302209,13610.0,S_OKEG,-79.442778,43.697296,OAKWOOD AVE. AT EGLINTON AVE. W.
13461007,-79.519571503,43.685900603,13864.0,S_TMLR,-79.519556,43.685897,TIMOTHY COURT AT LA ROSE AVE.
13456468,-79.466603511,43.711482476,13482.0,S_LWCA,-79.466588,43.711476,LAWRENCE AVE. W. AT CALEDONIA RD.
13460216,-79.493489524,43.689866426,13686.0,S_RABV,-79.493474,43.68986,RAY AVE. AT BARTONVILLE AVE.
13454491,-79.469870562,43.724110274,13036.0,S_BRGL,-79.469855,43.724104,BRIDGELAND AVE. AT CALEDONIA RD.
13469211,-79.544701618,43.632120551,13200.0,S_DUSH,-79.544686,43.632114,DUNDAS ST. W. AT SHORNCLIFFE RD.
13457330,-79.487667633,43.706374382,13130.0,S_CULF,-79.487652,43.706368,LAWRENCE AVE. W. AT CULFORD RD.
13449607,-79.438481647,43.755458418,13778.0,S_SHBA,-79.438466,43.755452,SHEPPARD AVE. W. AT BATHURST ST.
13460119,-79.475062683,43.690165352,13391.0,S_KEEG,-79.475047,43.690159,EGLINTON AVE. W. AT KEELE ST.
13460757,-79.489532718,43.686993544,13237.0,S_EGWE,-79.489517,43.686987,EGLINTON AVE. W. AT WESTON RD.
13460757,-79.489532718,43.686993544,13918.0,S_WEEG,-79.489517,43.686987,WESTON RD. AT EGLINTON AVE. W.
13446031,-79.444834718,43.781038641,13158.0,S_DLBA,-79.444819,43.781032,DON LAKE AT BATHURST ST.
13446031,-79.444834718,43.781038641,12969.0,S_BAAN,-79.444819,43.781032,BATHURST ST. AT ANTIBES DR.
13461680,-79.526607837,43.682334604,13245.0,S_ELRY,-79.526592,43.682329,EGLINTON AVE. W. AT ROYAL YORK RD
13458238,-79.503247905,43.700848086,13947.0,S_WRGT,-79.503232,43.700842,WRIGHT AVE. AT JANE STREET
152,-79.386959,43.651122,866.0,10896,-79.386966,43.651044,UNIVERSITY AVE AT QUEEN ST WEST (OSGOODE STATION)
13454748,-79.418500552,43.721663668,8940.0,5384,-79.418507,43.721584,LAWRENCE AVE WEST AT KIMBARK BLVD
13469800,-79.526741958,43.620918249,13678.0,S_QUKP,-79.526726,43.620912,THE QUEENSWAY AT KIPLING AVE.
13455455,-79.468157991,43.717756355,13618.0,S_ORFS,-79.468142,43.71775,ORFUS RD. AT CALEDONIA RD.
13456692,-79.471909067,43.710302504,13028.0,S_BNLW,-79.471893,43.710296,LAWRENCE AVE. W. AT BENTON RD.
13444801,-79.445381108,43.790827588,13322.0,S_GRWN,-79.445365,43.790821,GREENWIN VILLAGE AT BATHURST ST.
13470261,-79.520751113,43.607201763,13411.0,S_KIHO,-79.520735,43.607195,KIPLING AVE. AT HORNER AVE.
13459968,-79.500891132,43.69130158,13919.0,S_WEJA,-79.500875,43.691296,WESTON RD. AT JANE ST.
13444609,-79.445755162,43.792407463,13746.0,S_SBAT,-79.445739,43.792401,STEELES AVE. W. AT BATHURST ST.
13456952,-79.478062181,43.708659308,13394.0,S_KELW,-79.478046,43.708653,KEELE ST. AT LAWRENCE AVE. W.
13470006,-79.524628244,43.615873728,13264.0,S_EVKI,-79.524612,43.615867,EVANS AVE. AT KIPLING AVE.
13469998,-79.546287244,43.61641967,13253.0,S_EMQW,-79.546271,43.616412,EAST MALL AT THE QUEENSWAY
13470147,-79.543806274,43.611829061,13262.0,S_EVEM,-79.54379,43.611822,EVANS AVE. AT THE EAST MALL
13458367,-79.516201345,43.700158196,13921.0,S_WELW,-79.516185,43.700153,WESTON RD. AT LAWRENCE AVE. W.
13453983,-79.477749343,43.72816335,13517.0,S_MDNA,-79.477733,43.728157,MADONNA SCHOOL (AT DUBRAY AVE.)
13455040,-79.508634418,43.720915422,13374.0,S_JAWI,-79.508618,43.720909,JANE ST. AT WILSON AVE.
13457965,-79.503838437,43.702878069,13484.0,S_LWJA,-79.503822,43.702872,LAWRENCE AVE. W. AT JANE ST.
13460207,-79.530177489,43.690397949,13867.0,S_TRET,-79.530161,43.690392,TRETHORNE DR. AT ROYAL YORK RD.
13457985,-79.52544657,43.703006952,13094.0,S_CHWE,-79.52543,43.703002,CHURCH ST. AT WESTON RD.
13449936,-79.18939857,43.7496624,14939.0,15135,-79.189403,43.749577,GUILDWOOD PKWY AT GALLOWAY RD
13450069,-79.451918583,43.752688371,13786.0,S_SHFY,-79.451902,43.752682,SHEPPARD AVE. W. AT FAYWOOD BLVD.
13470350,-79.53373857,43.604264968,13340.0,S_HO30,-79.533722,43.604257,HORNER AVE. AT 30TH. STREET
13446970,-79.443008603,43.773859221,13291.0,S_FNBA,-79.442992,43.773853,FINCH AVE. W. AT BATHURST ST.
13470610,-79.529768629,43.595323994,13464.0,S_LK30,-79.529752,43.595316,LAKESHORE BLVD. W. AT 30TH STREET
13445306,-79.470089677,43.787283202,13202.0,S_DUST,-79.470073,43.787277,DUFFERIN ST. AT STEELES AVE. W.
13459022,-79.546731704,43.697049452,13153.0,S_DIIS,-79.546715,43.697045,DIXON RD. AT ISLINGTON AVE.
13469743,-79.540669676,43.622472606,13792.0,S_SHNG,-79.540653,43.622465,SHORNCLIFFE RD. AT NORTH QUEEN
13468751,-79.556709719,43.636929624,13249.0,S_EMBL,-79.556693,43.636922,THE EAST MALL AT BLOOR ST.
13454050,-79.503619755,43.727988827,13272.0,S_FBRG,-79.503603,43.727983,FORTHBRIDGE CR. AT CALVINGTON DR.
13470438,-79.545254731,43.601690365,13044.0,S_BRWN,-79.545238,43.601682,HORNER AVE. AT BROWN'S LINE
13447779,-79.466927821,43.768852099,13292.0,S_FNDU,-79.466911,43.768846,FINCH AVE. W. AT DUFFERIN ST.
13453125,-79.483728834,43.733580707,13066.0,S_CALV,-79.483712,43.733574,CALVINGTON DR. AT KEELE ST.
13465491,-79.543225848,43.659858189,13414.0,S_KIRA,-79.543209,43.659852,KIPLING AVE. AT RATHBURN RD.
13458327,-79.530682886,43.700570003,13210.0,S_DXRX,-79.530666,43.700565,DIXON AT ROXALINE ST.
13458913,-79.378536042,43.695366976,8949.0,7986,-79.378526,43.695441,MOORE AVE AT BRENDAN RD
13459156,-79.532738941,43.696161356,13741.0,S_RYLW,-79.532722,43.696157,LAWRENCE AVE. W. AT ROYAL YORK RD
13457027,-79.508529007,43.708589402,13881.0,S_UPHL,-79.508512,43.708584,UPHILL AVE. AT CHURCH ST.
13458463,-79.5342721,43.699821682,13740.0,S_RYDX,-79.534255,43.699817,ROYAL YORK RD. AT DIXON
13461140,-79.554703119,43.685625403,13417.0,S_KIWS,-79.554686,43.68562,THE WESTWAY AT KIPLING AVE.
13470082,-79.556154145,43.61421774,13679.0,S_QUNQ,-79.556137,43.61421,THE QUEENSWAY AT NORTH QUEEN
13469458,-79.558896165,43.628045876,13191.0,S_DUML,-79.558879,43.628038,DUNDAS ST. AT THE WEST MALL
13467918,-79.567250192,43.644552949,13939.0,S_WMBN,-79.567233,43.644546,THE WEST MALL AT BURNHAMTHORPE RD
13462349,-79.551712259,43.678937074,13927.0,S_WIDD,-79.551695,43.678931,WIDDECOMBE PLACE AT KIPLING AVE.
13454488,-79.284993078,43.721532188,14019.0,S_WACM,-79.284976,43.721517,WARDEN AVE AT COMSTOCK AVE
13455580,-79.523046351,43.717703384,13096.0,S_CLAY,-79.523029,43.717698,CLAYSON RD. AT WILSON AVE.
13446042,-79.494506362,43.78157907,13837.0,S_STKL,-79.494489,43.781573,STEELES AVE. W. AT KEELE ST.
13446837,-79.468468434,43.775193859,13496.0,S_MART,-79.468451,43.775188,MARTIN ROSS AVE. AT DUFFERIN ST.
13451388,-79.486452433,43.744777513,13789.0,S_SHKE,-79.486435,43.744771,SHEPPARD AVE. W. AT KEELE ST.
13449857,-79.488762507,43.754512472,13401.0,S_KESR,-79.488745,43.754506,KEELE ST. AT ST. REGIS CRES.
13449373,-79.513445543,43.758059041,13280.0,S_FIDR,-79.513428,43.758053,FINCH AVE. W. AT DRIFTWOOD AVE.
14646572,-79.449894069,43.781924379,7025.0,9280,-79.449882,43.781995,ANTIBES DR (NORTH) AT TORRESDALE AVE
13457759,-79.563488669,43.704833143,13387.0,S_KBEL,-79.563471,43.704827,BELFIELD RD. AT KIPLING AVE.
13448814,-79.556100326,43.762557421,14791.0,S_FEOR,-79.556117,43.762524,FENMAR DR AT ORMONT DR
13464505,-79.559485739,43.666319865,13654.0,S_PMMG,-79.559468,43.666313,PRINCESS MARGARET AT MARTIN GROVE
13448168,-79.322603839,43.764062506,5492.0,13961,-79.322608,43.763969,LYNEDOCK CRES AT ROYWOOD DR
13449500,-79.517731819,43.75723482,13287.0,S_FJAN,-79.517714,43.757229,FINCH AVE. W. AT JANE ST.
13453198,-79.538228852,43.733746804,13798.0,S_SHWE,-79.538211,43.733741,SHEPPARD AVE. W. AT WESTON RD.
13452283,-79.513221028,43.739389324,13788.0,S_SHJA,-79.513203,43.739383,SHEPPARD AVE. W. AT JANE ST.
13467204,-79.392859048,43.647320776,13665.0,S_PTAD,-79.392841,43.647316,PETER ST. & ADELAIDE ST W.
13452693,-79.523799047,43.736965031,13608.0,S_ODSH,-79.523781,43.736959,OAKDALE RD. AT SHEPPARD AVE. W.
13449708,-79.524287102,43.755928554,13607.0,S_ODFI,-79.524269,43.755922,OAKDALE RD. AT FINCH AVE. W.
13459576,-79.558649126,43.694249638,13388.0,S_KDXN,-79.558631,43.694244,DIXON RD. AT KIPLING AVE.
13469240,-79.575159114,43.632041765,13016.0,S_BLML,-79.575141,43.632034,BLOOR ST. AT MILL RD.
13451305,-79.568621085,43.746247698,13282.0,S_FIIS,-79.568603,43.746238,FINCH AVE. W. AT ISLINGTON AVE.
13448840,-79.518822132,43.761917513,13979.0,S_YORK,-79.518804,43.761911,YORK GATE BLVD. AT JANE ST.
13453059,-79.533955235,43.734670836,13699.0,S_RISH,-79.533937,43.734665,RIVALDA RD. AT SHEPPARD AVE. W.
13447218,-79.52142725,43.773207947,13348.0,S_HULL,-79.521409,43.773202,HULLMAR DR. AT JANE ST.
13454154,-79.574660323,43.728139703,13433.0,S_KWST,-79.574642,43.728134,WESTHUMBER BLVD. AT KIPLING AVE.
13447070,-79.526833323,43.774303272,13649.0,S_PKAI,-79.526815,43.774297,PETER KAISER GT. AT STEELES AVE.W
13456668,-79.566702345,43.711703398,13427.0,S_KREX,-79.566684,43.711698,KIPLING AVE. AT REXDALE BLVD.
13461007,-79.519571503,43.685900603,4493.0,12172,-79.519587,43.685846,LA ROSE AVE AT TIMOTHY CRT
13446896,-79.521735457,43.775470748,13380.0,S_JSTE,-79.521717,43.775465,JANE ST. AT STEELES AVE. W.
13450142,-79.536263468,43.753290347,13271.0,S_FARR,-79.536245,43.753284,FINCH AVE. W. AT ARROW RD.
13447223,-79.531775555,43.773313583,13594.0,S_NORF,-79.531757,43.773308,NORFINCH DR. AT STEELES AVE.W.
13450342,-79.542380573,43.752089994,13302.0,S_FWES,-79.542362,43.752084,FINCH AVE. W. AT WESTON RD.
13461594,-79.567163585,43.683336501,13527.0,S_MGRV,-79.567145,43.68333,MARTIN GROVE RD. AT THE WESTWAY
13449359,-79.538946611,43.758483419,13278.0,S_FESI,-79.538928,43.758478,FENMAR DR. AT SIGNET DR.
13456327,-79.581117615,43.713844916,13738.0,S_RXMG,-79.581099,43.713839,REXDALE BLVD. AT MARTIN GROVE RD.
13465185,-79.576527608,43.662227173,13255.0,S_ERRG,-79.576509,43.66222,ERINGATE DR. AT RANGOON RD.
13447719,-79.546526784,43.770281249,13951.0,S_WSTN,-79.546508,43.770275,WESTON RD. AT STEELES AVE. W.
13460801,-79.586823017,43.687948264,13154.0,S_DIXN,-79.586804,43.687942,DIXON RD. AT ATTWELL DR.
13451819,-79.582116042,43.743263602,13403.0,S_KFIN,-79.582097,43.743258,FINCH AVE. W. AT KIPLING AVE.
13447608,-79.543448138,43.770920075,13799.0,S_SIGT,-79.543429,43.770914,SIGNET DR. AT STEELES AVE. W.
13461025,-79.595566224,43.686757331,13063.0,S_CADI,-79.595547,43.686751,CARLINGVIEW DR. AT DIXON RD.
13452977,-79.594956231,43.736017084,13375.0,S_JGFI,-79.594937,43.736011,JOHN GARLAND BL. AT FINCH AVE. W.
13458741,-79.588149235,43.698996546,13013.0,S_BLBP,-79.58813,43.69899,BELFIELD RD. AT BROCKPORT DR.
13452853,-79.591703289,43.736772982,13570.0,S_MRFI,-79.591684,43.736767,MARTIN GROVE RD. AT FINCH AVE. W.
13453882,-79.601443401,43.730468485,13350.0,S_HUMB,-79.601424,43.730463,HUMBER COLLEGE BLVD. AT HWY.#27
13452362,-79.580402437,43.739724842,13386.0,S_KALB,-79.580383,43.739719,ALBION RD. AT KIPLING AVE.
13458987,-79.593186458,43.697842832,12995.0,S_BELF,-79.593167,43.697837,BELFIELD ROAD AT ATTWELL DR.
13452733,-79.565305566,43.737236726,13356.0,S_IALB,-79.565286,43.737231,ISLINGTON AVE. AT ALBION RD.
13452171,-79.589232607,43.741093842,12945.0,S_ALBN,-79.589213,43.741088,ALBION RD. AT FINCH AVE. W.
13452047,-79.594210705,43.74192483,12947.0,S_ALMR,-79.594191,43.741919,ALBION RD. AT MARTIN GROVE RD.
13454453,-79.586722725,43.726024454,13528.0,S_MGWH,-79.586703,43.726019,MARTIN GROVE RD. AT WESTHUMBER BL
13466992,-79.512658105,43.650267506,7389.0,1514,-79.512676,43.650219,ROYAL YORK RD AT KING GEORGES RD
13448601,-79.574871956,43.764343482,13365.0,S_ISST,-79.574852,43.764338,ISLINGTON AVE. AT STEELES AVE. W.
13453590,-79.609154244,43.732189583,13099.0,S_CLHU,-79.609134,43.732184,HUMBER COLL. BL. AT HUMBERLINE DR
13449294,-79.58991126,43.759607633,13423.0,S_KPST,-79.589891,43.759602,KIPLING AVE.AT STEELES AVE.W.
13469987,-79.521062666,43.61649514,6869.0,2431,-79.521073,43.616399,EVANS AVE AT ARNOLD ST
13457037,-79.488549455,43.708284936,8695.0,4934,-79.488542,43.708181,CULFORD RD AT VALENCIA CRES
13450421,-79.599302428,43.752300188,13526.0,S_MGRC,-79.599282,43.752295,MARTIN GROVE RD. AT ROYALCREST RD
13442563,-79.232449413,43.80872556,5514.0,3458,-79.232459,43.808824,CROW TRAIL AT CARRYING PL
13444174,-79.166727624,43.791739697,3087.0,10518,-79.166738,43.791643,ELLESMERE RD AT ZAPH AVE
13451252,-79.634935947,43.747436936,13118.0,S_CPAL,-79.634915,43.747432,CLAIREPORT CRES. AT ALBION RD.
13453535,-79.36045908,43.729182545,6933.0,1750,-79.360473,43.729268,THE BRIDLE PATH AT SAINTFIELD AVE
13457971,-79.531895502,43.703184667,9820.0,7366,-79.531907,43.703282,ST PHILLIPS RD AT RIVERVIEW HEIGHTS
13447351,-79.528630193,43.772462332,7369.0,3736,-79.528613,43.77253,HULLMAR DR AT HISEY CRES (NORTH)
13448501,-79.404758171,43.762888736,1946.0,1540,-79.404751,43.76278,SHEPPARD AVE EAST AT LEONA DR
13443581,-79.356966305,43.799585463,9732.0,2876,-79.356945,43.799605,MCNICOLL AVE AT BEDLE AVE WEST SIDE
13469464,-79.542914371,43.627709855,3506.0,9235,-79.542906,43.627598,SHORNCLIFFE AVE AT LOCKPORT AVE SOUTH SIDE
13454339,-79.569062223,43.726684851,3990.0,7823,-79.569083,43.726725,HINTON RD AT HAREFIELD DR
157,-79.405189,43.670249,3123.0,7352,-79.405167,43.670244,SPADINA RD AT KENDAL AVE
13457821,-79.464515021,43.703227399,4296.0,748,-79.464537,43.703211,CALEDONIA RD AT TYCOS DR SOUTH SIDE
13458841,-79.542844794,43.697915205,2184.0,4980,-79.542858,43.697817,DIXON RD AT DIXINGTON CRES EAST SIDE
13467143,-79.475398365,43.648760298,6501.0,7056,-79.475407,43.648875,RUNNYMEDE RD AT DEFOREST RD
13443040,-79.23227707,43.803066048,7487.0,9595,-79.232261,43.803152,MCLEVIN AVE AT GREENSPIRE RD
13469870,-79.486470112,43.618927832,10217.0,5189,-79.486481,43.618818,LAKE SHORE BLVD WEST AT LOUISA ST
214,-79.403889,43.667249,14294.0,14777,-79.40391,43.667298,SPADINA STATION
13444405,-79.230531368,43.790961499,5656.0,1365,-79.230514,43.791041,MILNER AVE AT NOVOPHARM CRT
13458327,-79.530682886,43.700570003,4913.0,5000,-79.530666,43.700655,DIXON RD AT ROXALINE ST
13446997,-79.216303719,43.77034373,2647.0,4839,-79.216322,43.770419,BRIMORTON DR AT LINVILLE RD
13460444,-79.494215113,43.688657378,14070.0,S_WRAY,-79.494192,43.68865,WESTON RD AT RAY AVE
13446940,-79.214306219,43.770801879,7879.0,11098,-79.214327,43.770742,BRIMORTON DR AT DALEHURST AVE
13454362,-79.508138249,43.72574319,10196.0,9205,-79.508143,43.725616,HEATHROW DR AT DATCHET RD
13457871,-79.365602515,43.701559085,6985.0,8329,-79.365594,43.701439,SUTHERLAND DR AT HANNA RD
13456140,-79.315429734,43.711466994,7350.0,7829,-79.315435,43.711342,HOLLINGER RD AT WATERMAN AVE
13455280,-79.237769814,43.715520724,6452.0,14297,-79.237791,43.715583,BARKDENE HILLS AT LARWOOD BLVD
13452256,-79.556338831,43.740171698,8139.0,11569,-79.556322,43.740076,THISTLE DOWN BLVD AT DASHWOOD CRES (SOUTH)
13460726,-79.404787971,43.685970054,10450.0,14351,-79.404767,43.685904,ST CLAIR AVE WEST AT DUNVEGAN RD
13449486,-79.499094616,43.7571364,9481.0,8087,-79.499107,43.757252,SENTINEL RD AT HUCKNALL RD (NORTH)
13450150,-79.326281752,43.750323796,3013.0,8388,-79.326282,43.75019,UNDERHILL DR AT SHAWFIELD CRES (SOUTH)
13454642,-79.525723834,43.72383245,14692.0,12328,-79.525726,43.723696,CLAYSON RD AT HUXLEY RD
13448828,-79.516965949,43.761970777,8502.0,2006,-79.516957,43.762099,DRIFTWOOD AVE AT STONG CRT
13465650,-79.569114418,43.659238749,2706.0,2222,-79.569115,43.659099,THE EAST MALL AT WEST DEANE PARK DR SOUTH SIDE
13452647,-79.248656942,43.733349205,3860.0,4968,-79.248654,43.733213,DANFORTH RD AT TYNE CRT
13469015,-79.581466789,43.634826221,5076.0,1274,-79.58146,43.634689,MARKLAND DR AT SILVERTHORNE BUSH DR
13462445,-79.375169603,43.676011143,6114.0,6401,-79.37516,43.676141,GLEN RD AT ELM AVE
13463578,-79.495848365,43.670956569,9108.0,6393,-79.495873,43.670912,FOXWELL ST AT DUERN ST
13445380,-79.4090782,43.785761744,3785.0,8820,-79.40908,43.78562,WILLOWDALE AVE AT REVCOE DR SOUTH SIDE
13444896,-79.166386981,43.786037558,9713.0,6623,-79.166407,43.785945,KINGSTON RD AT FRANKLIN AVE
13461812,-79.483085501,43.680993722,9343.0,3442,-79.483093,43.680854,CORDELLA AVE AT LOUVAIN ST
110,-79.396989,43.697748,14168.0,14646,-79.397014,43.697799,DAVISVILLE STATION
14249637,-79.229386288,43.823701582,14088.0,14557,-79.229363,43.823779,NIGHTSTAR RD AT WHARNSBY DR
13449504,-79.340879604,43.754775136,6519.0,7912,-79.340896,43.754894,LAURENTIDE DR AT BUSHBURY DR
13458348,-79.310096776,43.697418132,4810.0,1781,-79.31007,43.697384,COSBURN AVE AT WESTLAKE CRES EAST SIDE
214,-79.403889,43.667249,14339.0,14816,-79.403916,43.667219,SPADINA STATION
13456216,-79.39441946,43.712071009,13256.0,S_ERRP,-79.394447,43.712056,ERSKINE RD. AT REDPATH AVE.
13442611,-79.234196734,43.808047751,4232.0,4663,-79.234217,43.80815,TAPSCOTT RD AT MELFORD DR (SOUTH) WEST SIDE
13462724,-79.396605801,43.674724924,2410.0,926,-79.396581,43.674653,DAVENPORT RD AT AVENUE RD
13446613,-79.185033109,43.772607845,15034.0,15222,-79.185024,43.77275,KINGSTON RD AT AMIENS RD WEST SIDE
20089355,-79.522544073,43.672837879,2446.0,6982,-79.522542,43.672683,ROYAL YORK RD AT COBBLE HILLS
13448651,-79.476483261,43.762700064,8395.0,3432,-79.47646,43.762788,CHESSWOOD DR AT VANLEY CRES (NORTH)
13443127,-79.256365526,43.802477522,5587.0,6583,-79.256379,43.802343,MIDDLEFIELD RD AT COMPASS CRT
13456270,-79.308954739,43.71052502,1908.0,5925,-79.308969,43.710392,OCONNOR DR AT DOHME AVE
13470159,-79.545726984,43.611369147,9791.0,2452,-79.545741,43.611507,EVANS AVE AT SHELDON AVE WEST SIDE
13458880,-79.509462118,43.697303165,8908.0,8774,-79.509476,43.697442,WESTON RD AT VICTORIA AVE EAST NORTH SIDE
13463124,-79.370697142,43.67200954,956.0,483,-79.370709,43.672153,BLOOR ST EAST AT PARLIAMENT ST
13461456,-79.357689394,43.681280616,5650.0,651,-79.357708,43.681402,BROADVIEW AVE AT CHESTER HILL RD
30104484,-79.408633858,43.788945084,4077.0,1823,-79.408605,43.788923,205 CUMMER AVE
13454780,-79.50047645,43.722556285,9369.0,8887,-79.500468,43.722403,WILSON AVE AT WILLIAM CRAGG DR
13457716,-79.292785541,43.701416107,6679.0,8440,-79.292763,43.701516,VICTORIA PARK AVE AT CONROY AVE
13450150,-79.326281752,43.750323796,5954.0,8385,-79.326304,43.750426,UNDERHILL DR AT KELLYTHORNE DR
160,-79.436091,43.699148,13266.0,S_EWST,-79.436118,43.699087,EGLINTON WEST STATION
13442254,-79.220554046,43.812576036,2664.0,11623,-79.220575,43.812462,HUPFIELD TRAIL AT HORSESHOE CRES (NORTH)
13461408,-79.287087627,43.680539792,9054.0,2795,-79.287061,43.680614,KINGSTON RD AT SCARBOROUGH RD
13442363,-79.301945363,43.812136884,15279.0,S_MCKE,-79.301973,43.812202,MCNICOLL AVE & KENNEDY RD
13468683,-79.538998497,43.63736865,3686.0,2138,-79.538982,43.637508,DUNDAS ST WEST AT ACORN AVE
13454046,-79.572469356,43.728901678,5272.0,7568,-79.572484,43.728753,BROOKMERE RD AT ELMHURST DR
13454893,-79.327779065,43.719375974,6785.0,4727,-79.327767,43.719221,ST DENNIS DR AT LINKWOOD LANE
13448492,-79.488278471,43.764087065,13393.0,S_KEFI,-79.488248,43.76405,KEELE ST. AT FINCH AVE. W.
13466520,-79.340064117,43.650655547,6634.0,4892,-79.34008,43.65051,COMMISSIONERS ST AT BOUCHETTE ST
13450946,-79.568400312,43.748380297,1373.0,3759,-79.56842,43.748515,ISLINGTON AVE AT AVIEMORE DR
13465631,-79.546550454,43.65908451,2381.0,1481,-79.546522,43.659012,RATHBURN RD AT HALIBURTON AVE
13462887,-79.337191027,43.672912181,2070.0,1182,-79.337184,43.672746,JONES AVE AT BOULTBEE AVE
13448888,-79.199299027,43.757039488,8535.0,4213,-79.199305,43.757205,KINGSTON RD AT CELESTE DR
20105765,-79.192795175,43.764142797,2682.0,4202,-79.19281,43.764292,4314 KINGSTON RD
13455637,-79.305966813,43.714278207,3240.0,5919,-79.305988,43.714151,OCONNOR DR AT AMSTERDAM AVE
13464798,-79.521801989,43.663974683,4894.0,12,-79.521807,43.663802,ANGLESEY BLVD AT THE KINGSWAY
13457210,-79.296423166,43.704388451,3010.0,1884,-79.296442,43.70425,DAWES RD AT BETH ST
13463868,-79.372208241,43.667634935,736.0,8630,-79.372236,43.667548,WELLESLEY ST EAST AT ONTARIO ST
13466690,-79.342396721,43.64967857,1614.0,4898,-79.342383,43.64952,COMMISSIONERS ST AT SAULTER ST
13443349,-79.348418067,43.801574753,8247.0,2889,-79.348443,43.801461,MCNICOLL AVE AT HINES DR
13463058,-79.31037211,43.671503048,6027.0,2772,-79.310364,43.671675,KINGSTON RD AT COLUMBINE AVE
13469870,-79.486470112,43.618927832,8858.0,5190,-79.486443,43.619034,LAKE SHORE BLVD WEST AT LOUISA ST
13459424,-79.327115093,43.691926784,6480.0,4905,-79.327137,43.691791,COXWELL AVE AT MEMORIAL PARK AVE SOUTH SIDE
13454133,-79.234243816,43.723549975,6498.0,4247,-79.234226,43.723397,KINGSTON RD AT NEILSON AVE
13452729,-79.610773443,43.737841354,14095.0,14568,-79.61074,43.737865,CARRIER DR AT HUMBER COLLEGE BLVD
13454439,-79.274506611,43.721827316,2873.0,416,-79.274518,43.721655,BIRCHMOUNT RD AT FOXRIDGE DR SOUTH SIDE
13468811,-79.540088219,43.636109811,10129.0,5022,-79.54007,43.636271,DUNDAS ST WEST AT POPLAR AVE
13457129,-79.256448308,43.704267356,9008.0,1208,-79.256416,43.704334,KENNEDY RD AT MALTA ST NORTH SIDE
13442052,-79.317608824,43.818163115,6606.0,9893,-79.317587,43.818018,WINTERMUTE BLVD AT RIVER GROVE DR (SOUTH)
110,-79.396989,43.697748,14169.0,14647,-79.396955,43.697786,DAVISVILLE STATION
13459268,-79.342456963,43.693031458,7758.0,976,-79.342444,43.692857,DONLANDS AVE AT TORRENS AVE
13451446,-79.525994985,43.744878562,8545.0,5886,-79.526026,43.744791,OAKDALE RD AT JODY AVE SOUTH SIDE
13446558,-79.160853871,43.772675923,7699.0,3319,-79.160881,43.772559,BEECHGROVE DR AT DUNSTALL CRES
13463293,-79.311182173,43.669974171,4861.0,2774,-79.311174,43.669791,KINGSTON RD AT DIXON AVE
13442555,-79.290018434,43.809737808,9290.0,5711,-79.290013,43.809924,MIDLAND AVE AT KILCULLEN CASTLE GATE NORTH SIDE
13456343,-79.316448921,43.710172393,3704.0,7826,-79.316421,43.710287,HOLLINGER RD AT CURITY AVE
13455709,-79.292588934,43.713697039,5247.0,6674,-79.292569,43.713853,PHARMACY AVE AT CAMILLA CRES NORTH SIDE
13442631,-79.232633339,43.807651437,7064.0,3460,-79.232629,43.807839,CROW TRAIL AT TAPSCOTT RD
13444135,-79.24155146,43.793291012,4845.0,7241,-79.241518,43.793352,SHEPPARD AVE EAST AT SCUNTHORPE RD
111,-79.398648,43.705227,14193.0,14672,-79.398613,43.705256,EGLINTON STATION
13455525,-79.245073027,43.714114013,7014.0,4214,-79.245058,43.713942,KINGSTON RD AT CHINE DR
13458771,-79.560605273,43.698520056,2508.0,4375,-79.560617,43.698335,KIPLING AVE AT ST ANDREWS BLVD SOUTH SIDE
13442803,-79.186609007,43.804977006,9225.0,7237,-79.186583,43.804848,SHEPPARD AVE EAST AT ROUGE RIVER DR
13453057,-79.250821492,43.73069852,6765.0,4946,-79.25079,43.73061,DANFORTH RD AT GLENSHEPHARD DR WEST
13451001,-79.251277631,43.743661666,7808.0,632,-79.251274,43.743472,BRIMLEY RD AT GULLY DR SOUTH SIDE
13469683,-79.481211303,43.62296877,9453.0,5195,-79.4812,43.622784,LAKE SHORE BLVD WEST AT PARK LAWN RD
13463743,-79.335020069,43.667899804,1799.0,1197,-79.335046,43.667768,JONES AVE AT SPROAT AVE SOUTH SIDE
13453501,-79.229716314,43.727464255,8563.0,4223,-79.229729,43.727286,KINGSTON RD AT FENWOOD HEIGHTS
13462329,-79.30590338,43.67570099,9032.0,2777,-79.305875,43.675818,KINGSTON RD AT ELMER AVE
13456233,-79.2884945,43.710401643,3616.0,6136,-79.288467,43.710526,STC LAIR AVE EAST AT PRESLEY AVE
13469669,-79.49254144,43.623361382,8468.0,12141,-79.492545,43.623165,GRAND AVE AT MANITOBA ST SOUTH SIDE
13458057,-79.273562213,43.698956518,7242.0,1856,-79.273576,43.699138,DANFORTH RD AT MEDFORD AVE
304,-79.257285,43.774648,14285.0,14766,-79.257303,43.774477,SCARBOROUGH CENTRE STATION
13466153,-79.522709903,43.65544336,7746.0,5019,-79.522732,43.655282,DUNDAS ST WEST AT NOTTINGHAM DR
13452422,-79.32716119,43.735924203,10155.0,8051,-79.327137,43.736074,RAILSIDE RD AT CODECO CRT WEST SIDE
13447772,-79.401373262,43.768001128,10212.0,8807,-79.401362,43.76781,WILLOWDALE AVE AT HOLLYWOOD AVE SOUTH SIDE
13443713,-79.247360168,43.796881868,4336.0,9600,-79.247396,43.796931,NUGGET AVE AT DOVEDALE CRT WEST SIDE
30022876,-79.127671959,43.783442755,3538.0,9972,-79.127709,43.78345,LAWRENCE AVE EAST AT STOTTS TERR WEST SIDE
13469683,-79.481211303,43.62296877,14346.0,14827,-79.481239,43.622831,LAKE SHORE BLVD WEST AT PARK LAWN RD
13459803,-79.355163841,43.690274113,6112.0,663,-79.355154,43.690078,BROADVIEW AVE AT TORRENS AVE SOUTH SIDE
221,-79.337786,43.681048,14171.0,14649,-79.33779,43.680846,DONLANDS STATION
13454823,-79.258756892,43.718788767,10348.0,4948,-79.258732,43.71894,DANFORTH RD AT HART AVE
13442070,-79.203134951,43.81600334,4240.0,11245,-79.203103,43.815897,LITTLES RD AT GRAYSON CRES (NORTH) SOUTH SIDE
13455525,-79.245073027,43.714114013,1752.0,4215,-79.245087,43.714302,KINGSTON RD AT CHINE DR
13460216,-79.493489524,43.689866426,8690.0,9323,-79.493486,43.68966,RAY AVE AT BARTONVILLE AVE EAST
13458442,-79.290484487,43.696550547,14797.0,15026,-79.290454,43.69643,VICTORIA PARK AVE AT CRESCENT TOWN RD SOUTH SIDE
13469793,-79.483267663,43.620511692,14348.0,14829,-79.483271,43.620719,LAKE SHORE BLVD WEST AT LEGION RD
106,-79.385918,43.671043,14512.0,13755,-79.385955,43.670993,YONGE STATION - WESTBOUND PLATFORM
106,-79.385918,43.671043,14485.0,13756,-79.385955,43.670993,YONGE STATION - EASTBOUND PLATFORM
13461926,-79.497563083,43.680582293,4352.0,3867,-79.497577,43.680387,JANE ST AT BEXLEY CRES SOUTH SIDE
13465975,-79.360349161,43.654410506,1712.0,4143,-79.360383,43.654314,KING ST EAST AT SACKVILLE ST
13469555,-79.542177795,43.625967087,7394.0,9236,-79.542151,43.625815,SHORNCLIFFE AVE AT NEWBRIDGE RD SOUTH SIDE
13470303,-79.526679245,43.605862917,3269.0,3720,-79.526645,43.60596,HORNER AVE AT FIMA CRES
13470022,-79.48866413,43.614949433,2156.0,5202,-79.48869,43.615108,LAKE SHORE BLVD WEST AT SUPERIOR AVE
13451804,-79.448045756,43.741628715,2558.0,2467,-79.44804,43.741419,FAYWOOD BLVD AT DRESDEN RD
13446992,-79.403556026,43.773152091,9735.0,8818,-79.403555,43.77294,WILLOWDALE AVE AT PARKVIEW AVE SOUTH SIDE
13450103,-79.482735477,43.752845341,6125.0,3113,-79.482764,43.752992,SHEPPARD AVE WEST AT TUSCAN GATE
13456719,-79.311017029,43.707904549,5553.0,5924,-79.311011,43.708113,OCONNOR DR AT CURITY AVE
151,-79.385004,43.647605,1845.0,4192,-79.385042,43.647554,KING ST WEST AT UNIVERSITY AVE (ST ANDREW STATION)
13455900,-79.326940208,43.713012801,5965.0,9141,-79.32691,43.713148,GRENOBLE DR AT SPANBRIDGE RD
13448770,-79.368558862,43.760299808,4101.0,6341,-79.368588,43.760443,DAVEAN DR AT BANNATYNE DR
13462162,-79.37517521,43.677626853,642.0,12491,-79.375141,43.677733,GLEN RD AT SOUTH DR
14046422,-79.446624247,43.718916798,5788.0,6380,-79.446586,43.718969,FLEMINGTON RD AT DYNASTY LANE
13453454,-79.464498754,43.731158846,894.0,1662,-79.46453,43.731027,WILSON AVE AT LADY YORK AVE
13447184,-79.279282587,43.770066521,7868.0,4531,-79.279245,43.770132,PROGRESS AVE AT WILLIAM KITCHEN RD WEST SIDE
13459503,-79.531910639,43.694291301,7863.0,7041,-79.531949,43.694239,ROYAL YORK RD AT YORKLEIGH AVE
13458327,-79.530682886,43.700570003,9611.0,4999,-79.530716,43.700451,DIXON RD AT ROXALINE ST
203,-79.483892,43.650148,14221.0,14701,-79.483863,43.649998,JANE STATION
13470172,-79.495884633,43.610190519,7287.0,7001,-79.495924,43.610155,ROYAL YORK RD AT HILLSIDE AVE
13466745,-79.513219433,43.651665447,8553.0,1517,-79.513203,43.651465,ROYAL YORK RD AT LYNNGROVE AVE
13446163,-79.432610613,43.779780802,3846.0,6406,-79.432596,43.779984,GRANTBROOK ST AT BLAKE AVE NORTH SIDE
13461716,-79.331570565,43.679452793,6923.0,3683,-79.33161,43.679412,GREENWOOD AVE AT OAKVALE AVE SOUTH SIDE
13444364,-79.135403936,43.789726767,8356.0,6354,-79.135426,43.789905,EAST AVE AT CLARK SECOR PL NORTH SIDE
13449827,-79.254471945,43.751373736,7787.0,617,-79.254482,43.751165,BRIMLEY RD AT ARNPRIOR RD SOUTH SIDE
13458464,-79.297313554,43.696524537,7128.0,11256,-79.297332,43.696717,DAWES RD AT CRES TOWN RD
13464929,-79.577540613,43.663877054,9558.0,8063,-79.577505,43.663982,RANGOON RD AT HAGERSVILLE CRT NORTH SIDE
164,-79.450792,43.734547,15290.0,15465,-79.450795,43.734767,WILSON STATION
13453655,-79.310693892,43.727896012,789.0,8112,-79.310661,43.728023,SLOANE AVE AT TROPHY DR
13470396,-79.540816611,43.602693504,5496.0,3707,-79.540853,43.602596,HORNER AVE AT ALDERBRAE AVE
13467197,-79.395829745,43.647397808,8346.0,11985,-79.395835,43.647616,SPADINA AVE AT RICHMOND ST WEST
13467434,-79.585187617,43.648520205,1379.0,1484,-79.585228,43.648502,RATHBURN RD AT IVYBRIDGE DR WEST SIDE
13457566,-79.266020894,43.701907802,5067.0,7554,-79.266048,43.701746,BIRCHMOUNT RD AT MACK AVE
13451938,-79.53085146,43.741813054,5958.0,7501,-79.530846,43.741592,ARROW RD AT LIDO RD SOUTH SIDE
13446622,-79.404681801,43.775826637,10392.0,8797,-79.404663,43.776022,WILLOWDALE AVE AT CHURCH AVE NORTH SIDE
13454006,-79.360276264,43.726369372,8889.0,1752,-79.360315,43.726438,THE BRIDLE PATH AT SUNCREST DR
13444589,-79.140203808,43.788027062,4595.0,8037,-79.140214,43.787817,PORT UNION RD AT RAVINE PARK CRES SOUTH SIDE
13453065,-79.226461522,43.730301112,5786.0,4253,-79.226484,43.730118,KINGSTON RD AT PINE RIDGE DR
13468845,-79.580278818,43.63635457,4898.0,1272,-79.580312,43.636219,MARKLAND DR AT MILL RD
13444789,-79.436832148,43.79081042,7827.0,6655,-79.436813,43.790611,PECKHAM AVE AT DONNALYN DR SOUTH SIDE
13463075,-79.399144369,43.672690668,6117.0,338,-79.399151,43.672913,BEDFORD RD AT TRANBY AVE NORTH SIDE
13467485,-79.365422496,43.645182275,14893.0,S_SHQQ,-79.365381,43.645174,SHERBOURNE AT QUEENS QUAY
13456203,-79.264616324,43.710252372,14842.0,15062,-79.264581,43.71037,DANFORTH RD AT NORTH WOODROW BLVD
13464977,-79.480717394,43.662224608,7500.0,7063,-79.480728,43.662004,RUNNYMEDE RD AT MAHER AVE SOUTH SIDE
13447347,-79.189609494,43.767653017,6152.0,6487,-79.189581,43.767815,KINGSTON RD AT LAWRENCE AVE EAST
13461381,-79.487070026,43.683507569,2126.0,13450,-79.487029,43.683549,LAMBTON AVE AT CASHMAN CRES (EAST)
13447832,-79.21667965,43.764888495,6497.0,6040,-79.216676,43.764666,SCARBOROUGH GOLF CLUB RD AT CHANDLER DR SOUTH SIDE
13457092,-79.312836303,43.705396177,2488.0,5935,-79.312814,43.705587,OCONNOR DR AT ST CLAIR AVE EAST
13448712,-79.316176552,43.759960159,4218.0,7418,-79.316185,43.759739,VICTORIA PARK AVE AT PAGET RD SOUTH SIDE
13456092,-79.269808271,43.711081315,4879.0,7561,-79.269807,43.711308,BIRCHMOUNT RD AT ZENITH DR NORTH SIDE
13463693,-79.375393032,43.668746353,3949.0,7314,-79.375377,43.668959,SHERBOURNE ST AT EARL ST NORTH SIDE
13449481,-79.244701752,43.753549769,2293.0,5669,-79.244709,43.753326,MCCOWAN RD AT HOLLYHEDGE DR (NORTH) SOUTH SIDE
13460447,-79.397975867,43.687315266,10472.0,14348,-79.397938,43.687419,ST CLAIR AVE WEST AT DEER PARK CRES
13456383,-79.269018254,43.70920438,5055.0,7558,-79.269031,43.709422,BIRCHMOUNT RD AT SADLER DR NORTH SIDE
13448268,-79.269271077,43.762592565,2842.0,5725,-79.269268,43.762365,MIDLAND AVE AT MILLBRIDGE GATE SOUTH SIDE
13445937,-79.446578216,43.781747994,2137.0,9279,-79.44654,43.78185,ANTIBES DR (NORTH) AT PLUM TREEWAY (SOUTH) NORTH SIDE
13447836,-79.518762648,43.769163293,10372.0,13618,-79.518801,43.769061,SHOREHAM DR AT SHOREHAM CRT
13453279,-79.228255926,43.72875708,5160.0,4242,-79.228276,43.728959,KINGSTON RD AT MCNAB BLVD
13449721,-79.233253583,43.751733016,7486.0,341,-79.233248,43.75196,BELLAMY RD NORTH AT BANMOOR BLVD NORTH SIDE
30109241,-79.415581673,43.642903106,5704.0,11691,-79.415555,43.642721,SHAW ST AT ADELAIDE ST WEST
13454632,-79.443616865,43.722832214,9475.0,7400,-79.443659,43.722791,VARNA DR AT BREDONHILL CRT EAST SIDE
210,-79.435477,43.660199,4142.0,2013,-79.435482,43.659967,DUFFERIN ST AT BLOOR ST WEST (DUFFERIN STATION)
13463038,-79.5233815,43.674558334,6956.0,6986,-79.523422,43.674636,ROYAL YORK RD AT COUNTRY CLUB DR
13450308,-79.49565768,43.751680589,3902.0,2673,-79.495692,43.751539,GRANDRAVINE DR AT SENTINEL RD
13465288,-79.453683916,43.659940492,6213.0,3497,-79.453649,43.660078,DUNDAS ST WEST AT GLENLAKE AVE NORTH SIDE
13451567,-79.501541839,43.743710673,1899.0,9219,-79.501581,43.743809,ARLETA AVE AT SPENVALLEY DR
13461553,-79.37386036,43.680987201,4515.0,6402,-79.373881,43.680782,GLEN RD AT HIGHLAND AVE
13454073,-79.440326675,43.726956676,7658.0,6240,-79.440367,43.72704,AMEER AVE AT SULTANA AVE
13470070,-79.489314729,43.613779314,2173.0,5192,-79.489292,43.613577,LAKE SHORE BLVD WEST AT MIMICO AVE
13459219,-79.462810637,43.694942698,9722.0,703,-79.462802,43.695175,CALEDONIA RD AT BOWIE AVE NORTH SIDE
13460071,-79.536221715,43.691165755,5550.0,6172,-79.536256,43.691018,THE WESTWAY AT TREHORNE DR
13456161,-79.458591123,43.713279652,1443.0,5373,-79.458628,43.713153,LAWRENCE AVE WEST AT GOOD SHEPHERD CRT
13449989,-79.401464955,43.752520396,2740.0,8342,-79.401503,43.752405,THE LINKS RD AT LORD SEATON RD
204,-79.495092,43.650148,14261.0,14742,-79.495049,43.65019,OLD MILL STATION
13455397,-79.429413555,43.717629529,7267.0,119,-79.429423,43.717397,BATHURST ST AT DELL PARK AVE SOUTH SIDE
13448857,-79.42322785,43.760530584,1397.0,7117,-79.423206,43.760323,SENLAC RD AT ELMHURST AVE SOUTH SIDE
13453619,-79.596042999,43.731905283,3545.0,7864,-79.596083,43.731804,HUMBER COLLEGE BLVD AT LYNMONT RD
13448129,-79.459084382,43.766247911,8077.0,3180,-79.459051,43.766091,WILMINGTON AVE AT EVANSTON DR
13448693,-79.493642457,43.762600981,8123.0,2625,-79.493677,43.76245,FINCH AVE WEST AT ROMFIELD LANE
13461740,-79.457165504,43.681033013,1919.0,721,-79.457189,43.681238,CALEDONIA RD AT INNES AVE NORTH SIDE
13468605,-79.469914649,43.637210589,5383.0,14279,-79.469958,43.637158,THE QUEENSWAY AT WINDERMERE AVE
13451124,-79.564415677,43.747310482,2300.0,2618,-79.564455,43.747196,FINCH AVE WEST AT MILADY RD
13453253,-79.25177138,43.729296381,14800.0,15031,-79.251755,43.729518,DANFORTH RD AT WINTER AVE
13455374,-79.304939369,43.715986751,6628.0,5940,-79.304941,43.715747,OCONNOR DR AT WAKUNDA PLACE
13445649,-79.287428102,43.78173425,773.0,4092,-79.287468,43.781627,KENNEDY RD AT JADE ST
13450460,-79.252747705,43.747211508,9264.0,634,-79.252789,43.747121,BRIMLEY RD AT LARGO LANE SOUTH SIDE
13462431,-79.434826274,43.676931189,6287.0,5895,-79.434838,43.677166,OAKWOOD AVE AT BURLINGTON CRES NORTH SIDE
13447596,-79.191073691,43.76598284,3774.0,6496,-79.191058,43.766206,KINGSTON RD AT POPLAR RD
13448597,-79.456921639,43.762836792,4961.0,3183,-79.456964,43.762915,WILMINGTON AVE AT OVERBROOK PL
13449176,-79.234877016,43.755552177,4174.0,350,-79.234915,43.755424,BELLAMY RD NORTH AT EASTPARK BLVD SOUTH SIDE
13443890,-79.379105994,43.79729076,8399.0,1808,-79.379145,43.79717,CUMMER AVE AT CRAIGMONT DR
13442850,-79.345421324,43.806862025,3848.0,2659,-79.345465,43.806919,GORDON BAKER RD AT SPARKS AVE
13457395,-79.426372247,43.705191909,384.0,134,-79.426409,43.705333,BATHURST ST AT ELM RIDGE DR
13469945,-79.487348934,43.617280658,5667.0,5174,-79.487383,43.617442,LAKE SHORE BLVD WEST AT BURLINGTON ST
20015401,-79.501197065,43.767067073,3566.0,14284,-79.501152,43.767072,SENTINEL RD AT COOK RD
13469029,-79.556782821,43.634406061,4302.0,2210,-79.556826,43.634333,THE EAST MALL AT GORDON PARK DR SOUTH SIDE
13444733,-79.280038812,43.788933276,10346.0,5715,-79.280057,43.788711,MIDLAND AVE AT LOCKIE AVE SOUTH SIDE
13456270,-79.308954739,43.71052502,3034.0,5926,-79.308988,43.710691,OCONNOR DR AT DOHME AVE
13452101,-79.423867491,43.739374882,1186.0,8882,-79.423824,43.739305,WILSON AVE AT RIDLEY BLVD
13455942,-79.428599293,43.714203997,5523.0,146,-79.428642,43.714288,BATHURST ST AT GLENGROVE AVE
13975289,-79.236344593,43.734418055,6565.0,12093,-79.236342,43.734661,MCCOWAN RD AT BRIDLEGROVE DR NORTH SIDE
13463317,-79.318054795,43.669904231,4644.0,1797,-79.3181,43.669879,COXWELL AVE AT ROBBINS AVE
13444522,-79.26996107,43.790578864,7910.0,4824,-79.269949,43.790343,BRIMLEY RD AT HEATHER RD SOUTH SIDE
13448171,-79.183610378,43.761912117,7970.0,2937,-79.183606,43.762154,MORNINGSIDE AVE AT CORONATION DR NORTH SIDE
13462889,-79.537126689,43.675643799,1048.0,3827,-79.537107,43.675417,ISLINGTON AVE AT PRINCESS MARGARET BLVD SOUTH SIDE
13458644,-79.263163191,43.695049241,6965.0,7552,-79.263148,43.694818,BIRCHMOUNT RD AT HOLLIS AVE SOUTH SIDE
13468457,-79.544506102,43.639778064,924.0,597,-79.544544,43.639637,BLOOR ST WEST AT WILMAR RD
13450069,-79.451918583,43.752688371,3696.0,7298,-79.451879,43.752815,SHEPPARD AVE WEST AT WILMINGTON AVE
13468841,-79.486287854,43.635170758,9323.0,7371,-79.486256,43.635353,STEPHEN DR AT CLOVERHILL RD NORTH SIDE
203,-79.483892,43.650148,13377.0,S_JNST,-79.48393,43.650005,JANE STATION
13457893,-79.265192487,43.699929187,399.0,7549,-79.265226,43.699759,BIRCHMOUNT RD AT HIGHVIEW AVE SOUTH SIDE
13443611,-79.370298085,43.799607539,9068.0,5437,-79.370305,43.79936,LESLIE ST AT DEXTER BLVD SOUTH SIDE
13442290,-79.233220701,43.812089746,9299.0,3459,-79.233261,43.812211,CROW TRAIL AT CRITTENDEN SQ
13448115,-79.40036985,43.765591953,7055.0,8805,-79.400341,43.765395,WILLOWDALE AVE AT GREENFIELD AVE SOUTH SIDE
20164824,-79.523248493,43.72539408,14079.0,14524,-79.523294,43.725346,TORBARRIE RD AT JOSEPH GRIFFITH LANE SOUTH SIDE
13457615,-79.265885984,43.701597547,1519.0,7557,-79.265854,43.701778,BIRCHMOUNT RD AT RALEIGH AVE
13467838,-79.59006302,43.645511762,6842.0,1494,-79.5901,43.645356,MILL RD AT RATHBURN RD LOOP
13454004,-79.393970123,43.726858626,2598.0,1227,-79.394013,43.72676,LAWRENCE AVE EAST AT RONAN AVE
202,-79.510993,43.648348,14271.0,14752,-79.511038,43.648282,ROYAL YORK STATION
13468159,-79.447016163,43.641076507,14807.0,15038,-79.447011,43.64133,RONCESVALLES AVE AT MARION ST NORTH SIDE
13457695,-79.287325411,43.701472188,2345.0,6695,-79.287325,43.701724,PHARMACY AVE AT DONSIDE DR NORTH SIDE
13443108,-79.217799562,43.802074097,4230.0,1373,-79.21781,43.80232,NEILSON RD AT BERNER TRAIL
13449390,-79.234167852,43.753917147,9926.0,348,-79.23418,43.753673,BELLAMY RD NORTH AT BURNVIEW CRES SOUTH SIDE
13460848,-79.407904898,43.685348449,10460.0,14353,-79.407945,43.685213,ST CLAIR AVE WEST AT RUSSELL HILL RD
13462178,-79.490292715,43.679115295,1372.0,6956,-79.490328,43.679288,ROCKCLIFFE BLVD AT CAESAR AVE NORTH SIDE
13457616,-79.258456993,43.701479551,1800.0,2694,-79.258411,43.701539,HIGHVIEW AVE AT BAUDINA CRES
13442336,-79.258536993,43.811830283,7550.0,6580,-79.258497,43.811967,MIDDLEFIELD RD AT ARBOR LOW GATE NORTH SIDE
13448727,-79.257146816,43.758958487,1639.0,623,-79.257171,43.758739,BRIMLEY RD AT DORCOT AVE SOUTH SIDE
13460575,-79.446820417,43.68727147,5493.0,2049,-79.446807,43.687022,DUFFERIN ST AT EVERSFIELD RD SOUTH SIDE
13469764,-79.542675953,43.622017032,8994.0,9511,-79.542629,43.622062,NORTH QUEEN ST AT ATOMIC AVE
13463187,-79.298016182,43.670462088,5019.0,6808,-79.298063,43.670414,QUEEN ST EAST AT LEE AVE
13455529,-79.556677015,43.718419125,2699.0,3814,-79.55668,43.718156,ISLINGTON AVE AT LEDUC DR SOUTH SIDE
13457352,-79.47091259,43.706011708,2514.0,9875,-79.470896,43.706257,SHEFFIELD ST AT HAFIS RD NORTH SIDE
13457926,-79.286729601,43.700084274,997.0,6693,-79.286741,43.700334,PHARMACY AVE AT DOLPHIN DR NORTH SIDE
13467485,-79.365422496,43.645182275,15343.0,15515,-79.365381,43.645312,QUEENS QUAY EAST AT LOWER SHERBOURNE ST
13458400,-79.475967963,43.699431797,13325.0,S_GULV,-79.475926,43.699304,GULLIVER RD. AT KEELE ST.
13462333,-79.45579594,43.677779775,8781.0,734,-79.455842,43.677854,CALEDONIA RD AT NORMAN AVE
13450508,-79.231073518,43.746518572,9359.0,364,-79.231091,43.746279,BELLAMY RD NORTH AT NELSON ST SOUTH SIDE
13451959,-79.485557781,43.741082939,9087.0,3976,-79.485584,43.740862,KEELE ST AT DIANA DR SOUTH SIDE
13459424,-79.327115093,43.691926784,9224.0,4900,-79.327084,43.692126,COXWELL AVE AT BARKER AVE NORTH SIDE
13457987,-79.373375334,43.700941821,12871.0,14491,-79.373422,43.70101,BAYVIEW AVE AT MERTON ST
13456247,-79.411723374,43.712094462,7002.0,4784,-79.411767,43.712208,AVENUE RD AT HILLHURST BLVD
13463777,-79.369561948,43.668174635,1788.0,6652,-79.369544,43.667931,PARLIAMENT ST AT WELLESLEY ST EAST SOUTH SIDE
13448608,-79.197580126,43.758970298,769.0,4249,-79.197545,43.759148,KINGSTON RD AT OVERTURE RD
13464719,-79.376716938,43.662418858,670.0,11011,-79.376714,43.662681,JARVIS ST AT CARLTON ST NORTH SIDE
13461380,-79.322735799,43.681221554,3260.0,9541,-79.322719,43.681467,COXWELL AVE AT EARL HAIG AVE NORTH SIDE
13452527,-79.589906608,43.73880839,4116.0,2614,-79.589949,43.738939,FINCH AVE WEST AT KENDLETON DR
13442499,-79.312121478,43.810763718,4464.0,427,-79.312135,43.811015,BIRCHMOUNT RD AT IVY BUSH AVE NORTH SIDE
13456552,-79.444517266,43.710731289,7140.0,6544,-79.444491,43.710508,MARLEE AVE AT GLENGROVE AVE SOUTH SIDE
13468912,-79.421766925,43.633638648,10429.0,14362,-79.4218,43.633444,MANITOBA DR AT NOVA SCOTIA AVE EAST SIDE
13468844,-79.49302701,43.635238789,5754.0,10123,-79.493004,43.635475,PARK LAWN RD AT KINSDALE BLVD NORTH SIDE
30072982,-79.429890255,43.672147689,9849.0,5968,-79.429876,43.671893,OSSINGTON AVE AT GEARY AVE
13461226,-79.281418647,43.681431399,8892.0,11840,-79.281465,43.681347,KINGSTON RD AT BLANTYRE AVE
13463416,-79.48710542,43.671689162,7381.0,6957,-79.487058,43.671756,ROCKCLIFFE BLVD AT CORBETT AVE NORTH SIDE
13463615,-79.521789504,43.671156226,7509.0,6988,-79.521761,43.670937,ROYAL YORK RD AT DARLINGBROOK CRES SOUTH SIDE
13456999,-79.375649158,43.706939629,1839.0,1722,-79.375629,43.707182,BAYVIEW AVE AT FLEMING CRES NORTH SIDE
13464902,-79.524883269,43.663381606,977.0,15,-79.524926,43.663514,ANGLESEY BLVD AT PINEHURST CRES NORTH SIDE
13468811,-79.540088219,43.636109811,7008.0,2180,-79.540101,43.635849,DUNDAS ST WEST AT SUBWAY CRES
13445034,-79.367553988,43.787992511,9999.0,5487,-79.367559,43.787728,LESLIE ST AT ELSA VINE WAY SOUTH SIDE
13450857,-79.310938942,43.74540443,1453.0,8448,-79.310959,43.745163,VICTORIA PARK AVE AT DEANVAR AVE SOUTH SIDE
13452253,-79.258774133,43.736044354,8628.0,5718,-79.258782,43.735784,MIDLAND AVE AT LORD ROBERTS DR (SOUTH) SOUTH SIDE
13459782,-79.517493129,43.692625394,2716.0,7102,-79.517521,43.692848,SCARLETT RD AT SCARLETTWOOD CRT NORTH SIDE
13459465,-79.414478143,43.692930707,2894.0,4608,-79.414526,43.692992,SPADINA RD AT BURTON RD
13457237,-79.349877201,43.70500665,5132.0,4520,-79.349853,43.704775,OVERLEA BLVD AT THORNCLIFFE PARK DR (WEST)
13449758,-79.514190215,43.75547314,1977.0,2010,-79.514146,43.755592,DRIFTWOOD AVE AT YEWTREE BLVD
13462634,-79.524316303,43.676979416,3122.0,7018,-79.524288,43.677201,ROYAL YORK RD AT NORTH DR NORTH SIDE
13456004,-79.291819461,43.711913412,2274.0,6742,-79.291845,43.712141,PHARMACY AVE AT ROSITA CRES NORTH SIDE
13459341,-79.275243497,43.691646863,7865.0,9693,-79.275198,43.691751,CLONMORE DR AT CORNELL AVE
13457805,-79.550082066,43.704442697,1633.0,3852,-79.550097,43.704182,ISLINGTON AVE AT WESTHAMPTON DR SOUTH SIDE
13463152,-79.296872919,43.670711383,8148.0,5115,-79.296889,43.670964,HAMBLY AVE AT QUEEN ST EAST NORTH SIDE
13466640,-79.45106952,43.651515981,14808.0,15039,-79.45106,43.65125,RONCESVALLES AVE AT HOWARD PARK AVE SOUTH SIDE
13455194,-79.44823095,43.719112559,1553.0,6381,-79.448184,43.719201,FLEMINGTON RD AT BLOSSOMFIELD DR NORTH SIDE
13451209,-79.492516878,43.745908752,6283.0,9228,-79.492494,43.745667,SENTINEL RD AT FREDRICK MOWAT LANE SOUTH SIDE
13450756,-79.25189932,43.74514829,1849.0,640,-79.251865,43.745341,BRIMLEY RD AT SEMINOLE AVE NORTH SIDE
13445655,-79.407871756,43.783440548,8186.0,8791,-79.40787,43.783711,WILLOWDALE AVE AT BISHOP AVE NORTH SIDE
13470586,-79.524995119,43.596418808,2957.0,5159,-79.525042,43.596327,LAKE SHORE BLVD WEST AT TWENTY SEVENTH ST
13442496,-79.213983025,43.809307551,3944.0,9842,-79.213946,43.809127,SEWELLS RD AT ALFORD CRES
13455247,-79.299286719,43.716670214,2517.0,8491,-79.299276,43.716406,VICTORIA PARK AVE AT PARMA CRT SOUTH SIDE
13462263,-79.29684245,43.675984792,6696.0,6095,-79.296888,43.676099,SOUTHWOOD DR AT GLEN AMES
13447143,-79.428508817,43.772464933,4817.0,7121,-79.428539,43.772685,SENLAC RD AT HOUNSLOW AVE NORTH SIDE
14248133,-79.222768847,43.823756958,4952.0,14081,-79.222747,43.824,MANTIS RD AT POPPY PL (NORTH)
156,-79.398089,43.668848,14301.0,14784,-79.398053,43.668655,ST GEORGE STATION
13449405,-79.287749096,43.754653149,6832.0,408,-79.287722,43.754886,BIRCHMOUNT RD AT EXFORD DR NORTH SIDE
13467434,-79.585187617,43.648520205,4173.0,1485,-79.585232,43.64838,RATHBURN RD AT IVYBRIDGE DR
13463293,-79.311182173,43.669974171,3281.0,2775,-79.311229,43.670086,KINGSTON RD AT DUNDAS ST EAST
13445267,-79.409618055,43.786811886,1371.0,8824,-79.409567,43.786836,WILLOWDALE AVE AT SILVERVIEW DR
13463865,-79.420292193,43.668338938,9333.0,773,-79.420306,43.668608,CHRISTIE ST AT FOLLIS AVE NORTH SIDE
13444980,-79.290081224,43.787250757,8343.0,4100,-79.290058,43.787497,KENNEDY RD AT MARILYN AVE NORTH SIDE
13468080,-79.432369415,43.641474599,9607.0,6836,-79.432419,43.6414,QUEEN ST WEST AT BROCK AVE
13461623,-79.322146839,43.679825422,4247.0,1792,-79.322127,43.679569,COXWELL AVE AT HANSON ST SOUTH SIDE
20164824,-79.523248493,43.72539408,14082.0,14528,-79.523205,43.725546,TORBARRIE RD AT JOSEPH GRIFFITH LANE NORTH SIDE
13459651,-79.287924317,43.690179281,2623.0,4697,-79.28797,43.690051,VICTORIA PARK AVE AT WAKEHOOD ST SOUTH SIDE
13449369,-79.454629361,43.757315211,3340.0,3186,-79.454678,43.75741,WILMINGTON AVE AT SEARLE AVE
13446703,-79.488925458,43.776290172,7116.0,4527,-79.488974,43.776387,PETROLIA RD AT CANARCTIC DR
13452245,-79.307651207,43.736824733,6829.0,8513,-79.307659,43.736549,VICTORIA PARK AVE AT SWEENEY DR SOUTH SIDE
13444964,-79.2792917,43.787212659,9400.0,5738,-79.279278,43.787481,MIDLAND AVE AT RURAL AVE NORTH SIDE
13460937,-79.311842444,43.683424352,777.0,8924,-79.311795,43.683536,WOODBINE AVE AT MERRILL AVE NORTH SIDE
13454113,-79.36385257,43.725604909,4251.0,2653,-79.36389,43.725799,GELNORCHY RD AT SUNCREST DR NORTH SIDE
200,-79.535993,43.637148,14236.0,14717,-79.535955,43.637342,KIPLING STATION
13449082,-79.391836329,43.758458956,5152.0,7983,-79.391882,43.758592,MONTRESSOR DR AT TROON CRT NORTH SIDE
13465050,-79.494563201,43.661988828,6610.0,11057,-79.494613,43.662069,GOOCH AVE AT MAGWOOD CRT
13450349,-79.285212837,43.748482528,9873.0,402,-79.285183,43.748711,BIRCHMOUNT RD AT DULVERTON RD NORTH SIDE
13442555,-79.290018434,43.809737808,1334.0,5710,-79.28999,43.809504,MIDLAND AVE AT KILCULLEN CASTLE GATE SOUTH SIDE
13450273,-79.401872383,43.750649042,6403.0,8343,-79.401913,43.750825,THE LINKS RD AT TOURNAMENT DR
13447928,-79.227080531,43.764399426,5494.0,5581,-79.227086,43.764123,MARKHAM RD AT ROCHMAN BLVD SOUTH SIDE
13463494,-79.305775296,43.668757076,8456.0,14144,-79.305817,43.66859,WOODBINE AVE AT QUEEN ST EAST SOUTH SIDE
13443773,-79.354750234,43.797863725,3712.0,1911,-79.354799,43.797961,DON MILLS RD AT BEDLE AVE
13443349,-79.348418067,43.801574753,8379.0,2902,-79.348372,43.801705,MCNICOLL AVE AT PICOLA CRT
13470022,-79.48866413,43.614949433,5516.0,5201,-79.488618,43.614817,LAKE SHORE BLVD WEST AT SUPERIOR AVE
13469592,-79.508856888,43.624973112,6539.0,6898,-79.508904,43.624851,THE QUEENSWAY AT LOMA RD
13448088,-79.237529947,43.763451788,7593.0,343,-79.237518,43.76318,BELLAMY RD NORTH AT BENLEIGH DR SOUTH SIDE
228,-79.263884,43.732248,14232.0,14713,-79.263895,43.732522,KENNEDY STATION
13446432,-79.183117647,43.774047588,7635.0,13466,-79.183158,43.773871,KINGSTON RD AT OLD KINGSTON RD
13456327,-79.581117615,43.713844916,7729.0,5638,-79.581098,43.713577,MARTIN GROVE RD AT REXDALE BLVD SOUTH SIDE
13462824,-79.309086999,43.672869107,8219.0,2790,-79.309136,43.672771,KINGSTON RD AT RAINSFORD RD
13451853,-79.382653165,43.740359719,9415.0,1710,-79.382689,43.740152,BAYVIEW AVE AT ARJAY CRES
13445430,-79.327225199,43.784243217,3660.0,8438,-79.327227,43.78396,VICTORIA PARK AVE AT CLYDESDALE DR
13453881,-79.382188523,43.727576421,2591.0,11330,-79.382237,43.727686,BAYVIEW AVE AT LAWRENCE AVE EAST (YORK U GLENDON CAMPUS)
13444980,-79.290081224,43.787250757,3497.0,4101,-79.290102,43.786991,KENNEDY RD AT MARILYN AVE SOUTH SIDE
13461967,-79.490787271,43.680243108,4665.0,6959,-79.490823,43.680456,ROCKCLIFFE BLVD AT HOMER AVE NORTH SIDE
13449110,-79.566065791,43.760586611,8669.0,4488,-79.566018,43.760711,MILVAN DR AT MILWICK DR (NORTH)
13464097,-79.533857588,43.668380975,2346.0,3808,-79.533843,43.668663,ISLINGTON AVE AT THE KINGSWAY NORTH SIDE
13460704,-79.276100796,43.684203912,2801.0,4270,-79.276149,43.684082,KINGSTON RD AT WOOD GLEN RD
13452485,-79.315618329,43.735348557,4587.0,8335,-79.31567,43.73542,SWEENEY DR AT GRETNA AVE WEST SIDE
13463166,-79.341694289,43.671268936,14564.0,5991,-79.341719,43.671525,PAPE AVE AT RIVERDALE AVE NORTH SIDE
13463573,-79.337583951,43.668796419,7733.0,1098,-79.337636,43.668728,GERRARD ST EAST AT MARJORY AVE
13457727,-79.577170132,43.705242693,1101.0,5651,-79.577155,43.704958,MARTIN GROVE RD AT VULCAN ST SOUTH SIDE
13469442,-79.479020626,43.627305982,14056.0,14543,-79.479034,43.627021,LAKE SHORE BLVD WEST AT BROOKERS LANE
13444596,-79.440634457,43.792472379,8853.0,1617,-79.440684,43.792586,VILLAGE GATE AT STEELES AVE WEST
13455590,-79.249277032,43.713775059,8511.0,2911,-79.249267,43.713492,MIDLAND AVE AT AYLESWORTH AVE SOUTH SIDE
13463865,-79.420292193,43.668338938,3074.0,772,-79.420253,43.668138,CHRISTIE ST AT ESSEX ST SOUTH SIDE
13454299,-79.552088604,43.726738928,3154.0,6215,-79.552106,43.72702,ALBION RD AT ARCOT BLVD NORTH SIDE
13468841,-79.486287854,43.635170758,14571.0,7372,-79.486341,43.63522,STEPHEN DR AT CLOVERHILL RD
13465103,-79.570631736,43.662641037,8454.0,2218,-79.570685,43.662687,THE EAST MALL AT TALGARTH RD
20110447,-79.56129254,43.634355695,5289.0,8663,-79.561344,43.634267,THE WEST MALL AT LEAVENWORTH CRES SOUTH SIDE
115,-79.412755,43.767867,6050.0,9005,-79.412701,43.767853,YONGE ST AT HILLCREST AVE (MEL LASTMAN SQUARE)
13453983,-79.477749343,43.72816335,10109.0,8848,-79.477697,43.728086,WILSON AVE AT DUBRAY AVE
13454806,-79.558922173,43.72311204,10004.0,3784,-79.5589,43.722839,ISLINGTON AVE AT ELMHURST DR SOUTH SIDE
13468572,-79.53801171,43.638524294,3854.0,2139,-79.538023,43.638232,DUNDAS ST WEST AT AUKLAND RD
13451476,-79.325204394,43.741929206,2847.0,13436,-79.325239,43.742155,UNDERHILL DR AT ROANOKE RD NORTH SIDE
13445078,-79.392745857,43.788023558,7223.0,314,-79.392772,43.787765,BAYVIEW AVE AT RUDDINGTON DR SOUTH SIDE
13454396,-79.26355924,43.721958399,7596.0,2764,-79.263541,43.722233,KENNEDY RD AT SUMMER DR NORTH SIDE
13464042,-79.385340172,43.666695024,1493.0,3233,-79.385393,43.666764,YONGE ST AT IRWIN AVE
13466259,-79.527922421,43.654881144,1316.0,3788,-79.527876,43.655037,ISLINGTON AVE AT FAIRWAY RD NORTH SIDE
13445430,-79.327225199,43.784243217,9041.0,8428,-79.327197,43.784495,VICTORIA PARK AVE AT ALTAIR AVE NORTH SIDE
30032676,-79.621815311,43.727451024,9727.0,11849,-79.621767,43.727591,HUMBERWOOD BLVD AT UPPER HUMBER DR
13456157,-79.330286983,43.711523465,1929.0,3634,-79.330338,43.711627,GATEWAY BLVD (SOUTH SIDE) AT SUNNY GLENWAY (EAST SIDE)
13469945,-79.487348934,43.617280658,8764.0,5173,-79.487299,43.61716,LAKE SHORE BLVD WEST AT BURLINGTON ST
13450486,-79.516078252,43.750736893,4521.0,3893,-79.51609,43.750444,JANE ST AT FIRGROVE CRES (SOUTH) SOUTH SIDE
13446380,-79.432198196,43.778088362,2797.0,6413,-79.432146,43.777999,GRANTBROOK ST AT HENDON AVE
13468518,-79.471053939,43.638260603,1685.0,7453,-79.471107,43.638187,WINDERMERE PLACE AT WINDERMERE AVE
13465254,-79.424790494,43.659768563,4373.0,5973,-79.424806,43.660055,OSSINGTON AVE AT HEPBOURNE ST NORTH SIDE
13458547,-79.530201568,43.699344652,1370.0,6966,-79.530254,43.699434,ROXALINE ST AT ROYALEIGH AVE
13446259,-79.475622647,43.779573393,5018.0,2,-79.475677,43.779616,ALNESS ST AT DOLOMITE DR
13455516,-79.570066658,43.718713517,8601.0,4366,-79.570116,43.71858,KIPLING AVE AT REDCLIFF BLVD SOUTH SIDE
13445883,-79.286667479,43.779880461,3391.0,4110,-79.286665,43.779585,KENNEDY RD AT PENTLY CIR SOUTH SIDE
13465361,-79.384893847,43.658510723,3450.0,248,-79.38486,43.658746,BAY ST AT GERRARD ST WEST NORTH SIDE
13448649,-79.368370948,43.761222719,2507.0,6342,-79.368327,43.761402,DAVEAN DR AT DUNLACE DR
13456080,-79.555116255,43.715102458,10120.0,14120,-79.555081,43.715337,ISLINGTON AVE AT REXDALE BLVD NORTH SIDE
13445947,-79.275575271,43.779214197,3209.0,5700,-79.275625,43.779085,MIDLAND AVE AT EMBLEM CRT
13460834,-79.51314736,43.68684888,4753.0,7093,-79.513138,43.687148,SCARLETT RD AT LA ROSE AVE NORTH SIDE
13453941,-79.61965768,43.730320739,5755.0,12200,-79.619626,43.730572,HUMBERWOOD BLVD AT TOPBANK DR NORTH SIDE
13450773,-79.389010706,43.747033188,9893.0,3257,-79.389063,43.746936,YORK MILLS RD AT FENN AVE
13459914,-79.340986938,43.689421968,1583.0,962,-79.34096,43.689161,DONLANDS AVE AT FLOYD AVE
13464157,-79.41962412,43.666572874,8540.0,769,-79.419594,43.66632,CHRISTIE ST AT BARTON AVE SOUTH SIDE
13453065,-79.226461522,43.730301112,5858.0,4220,-79.22644,43.730574,KINGSTON RD AT PINE RIDGE DR
13459016,-79.273203049,43.693281641,4508.0,8549,-79.273191,43.692991,WARDEN AVE AT CLONMORE DR
13447347,-79.189609494,43.767653017,8177.0,6488,-79.189601,43.767361,KINGSTON RD AT LAWRENCE AVE EAST
13460422,-79.504006289,43.688890982,7204.0,2423,-79.503992,43.688597,EMMETT AVE AT VERONA AVE
13464096,-79.378347046,43.666285308,678.0,10937,-79.378325,43.666009,JARVIS ST AT WELLESLEY ST EAST SOUTH SIDE
13451125,-79.222108353,43.742487588,7424.0,2241,-79.222157,43.742344,EGLINTON AVE EAST AT BEACHELL ST
13445027,-79.409917046,43.788663254,5240.0,8799,-79.409902,43.788372,WILLOWDALE AVE AT CUMMER AVE SOUTH SIDE
13446213,-79.285558093,43.777253147,9452.0,4127,-79.285536,43.777528,KENNEDY RD AT VILLAGE GREEN SQ NORTH SIDE
13463344,-79.504007275,43.672328754,7347.0,7087,-79.50398,43.672062,SCARLETT RD AT EDINBOROUGH CRT SOUTH SIDE
13444800,-79.290670613,43.788629011,9639.0,4119,-79.290639,43.788876,KENNEDY RD AT REIDMOUNT AVE NORTH SIDE
13457277,-79.277509407,43.703671126,14782.0,15013,-79.277462,43.703829,WARDEN AVE AT FIRVALLEY CRT
13463568,-79.420932841,43.670011896,9114.0,778,-79.420961,43.670275,CHRISTIE ST AT YARMOUTH RD NORTH SIDE
13447927,-79.459720704,43.767773046,3360.0,3184,-79.459771,43.767907,WILMINGTON AVE AT PURDON DR
13441904,-79.200796019,43.819770151,3821.0,13323,-79.20074,43.819766,MORNINGVIEW TRAIL AT SEWELLS RD
20028249,-79.447553321,43.688589009,6478.0,2060,-79.447509,43.688777,DUFFERIN ST AT HOLMESDALE RD
13453439,-79.619498679,43.733191756,10408.0,11418,-79.619546,43.733024,HUMBERWOOD BLVD AT HONEYVIEW PL
13469379,-79.516986556,43.628944057,5914.0,2713,-79.516959,43.629213,ISLINGTON AVE AT AMBLESIDE AVE
13457237,-79.349877201,43.70500665,1009.0,8012,-79.349834,43.705201,OVERLEA BLVD AT THORNCLIFFE PARK DR WEST
13452263,-79.411816214,43.738176559,5245.0,8944,-79.41176,43.738185,YONGE BLVD AT HARLEY AVE
13449486,-79.499094616,43.7571364,7078.0,8086,-79.499045,43.756988,SENTINEL RD AT HUCKNALL RD (NORTH)
13503897,-79.234081894,43.792287713,8572.0,12053,-79.234031,43.79242,PROGRESS AVE AT ROSEBANK DR NORTH SIDE
13458054,-79.36719684,43.700345664,7156.0,8333,-79.367249,43.700225,SUTHERLAND DR AT ROLPH RD
13466153,-79.522709903,43.65544336,10413.0,3511,-79.522659,43.655581,DUNDAS ST WEST AT NOTTINGHAM DR
13452530,-79.446973228,43.736940614,8312.0,2470,-79.447027,43.737041,FAYWOOD BLVD AT GOODWILL AVE
13450255,-79.207640791,43.747861542,4882.0,2781,-79.207659,43.747574,KINGSTON RD AT GUILDCREST DR
13451275,-79.383409867,43.743991418,5512.0,325,-79.383464,43.744086,BAYVIEW AVE AT VALLEY RD
13451900,-79.567745987,43.742465082,4404.0,3765,-79.56771,43.742221,ISLINGTON AVE AT BEAUMONDE HEIGHTS DR SOUTH SIDE
13452414,-79.312398107,43.735730103,7983.0,8110,-79.312363,43.735488,SLOANE AVE AT SWEENEY DR SOUTH SIDE
13448310,-79.31753172,43.763020938,9946.0,8523,-79.317519,43.762721,VICTORIA PARK AVE AT YORK MILLS RD SOUTH SIDE
13444800,-79.290670613,43.788629011,6392.0,4120,-79.290718,43.788457,KENNEDY RD AT REIDMOUNT AVE SOUTH SIDE
13452167,-79.291340676,43.73704414,1466.0,8595,-79.291293,43.737216,WARDEN AVE AT MINFORD AVE NORTH SIDE
13447281,-79.472506316,43.772211499,14363.0,14837,-79.472489,43.772511,ALNESS ST AT BRISBANE RD NORTH SIDE
13446464,-79.488409199,43.778276261,7337.0,4530,-79.488463,43.778386,PETROLIA RD AT WILDCAT RD
13465858,-79.478700903,43.656838232,3110.0,7060,-79.478723,43.657129,RUNNYMEDE RD AT GLENWOOD AVE NORTH SIDE
13461005,-79.400530362,43.684309799,6016.0,46,-79.400587,43.684365,AVENUE RD AT BALMORAL AVE
207,-79.459891,43.655248,14226.0,14706,-79.459841,43.655404,KEELE STATION
13444683,-79.442125529,43.791703566,2594.0,1138,-79.442069,43.791764,GREENWIN VILLAGE RD AT ELISE TERR WEST
13461129,-79.372972816,43.683218449,1928.0,6403,-79.373018,43.683024,GLEN RD AT WHITNEY AVE
13455910,-79.507224907,43.715456446,3647.0,3898,-79.507242,43.715153,JANE ST AT GORDON MACKAY RD SOUTH SIDE
