{
"type": "FeatureCollection",
"name": "stations_utm17n",
"crs": { "type": "name", "properties": { "name": "urn:ogc:def:crs:EPSG::32617" } },
"features": [
{ "type": "Feature", "properties": { "name": "SHEPPARD WEST STATION ", "latitude": 43.750204, "longitude": -79.462781 }, "geometry": { "type": "Point", "coordinates": [ 623761.73954383819364, 4845277.378106608986855 ] } },
{ "type": "Feature", "properties": { "name": "WILSON STATION ", "latitude": 43.734547, "longitude": -79.450792 }, "geometry": { "type": "Point", "coordinates": [ 624759.503938532667235, 4843556.421836268156767 ] } },
{ "type": "Feature", "properties": { "name": "YORKDALE STATION ", "latitude": 43.724595, "longitude": -79.447693 }, "geometry": { "type": "Point", "coordinates": [ 625029.778265331638977, 4842455.779830674640834 ] } },
{ "type": "Feature", "properties": { "name": "LAWRENCE WEST STATION ", "latitude": 43.716347, "longitude": -79.444191 }, "geometry": { "type": "Point", "coordinates": [ 625329.044384633656591, 4841545.011403925716877 ] } },
{ "type": "Feature", "properties": { "name": "GLENCAIRN STATION ", "latitude": 43.708582, "longitude": -79.440796 }, "geometry": { "type": "Point", "coordinates": [ 625618.755665729404427, 4840687.737767891958356 ] } },
{ "type": "Feature", "properties": { "name": "EGLINTON WEST STATION ", "latitude": 43.699148, "longitude": -79.436091 }, "geometry": { "type": "Point", "coordinates": [ 626017.58805751381442, 4839647.100929948501289 ] } },
{ "type": "Feature", "properties": { "name": "ST CLAIR WEST STATION ", "latitude": 43.684048, "longitude": -79.41589 }, "geometry": { "type": "Point", "coordinates": [ 627677.413274071761407, 4838000.93995329644531 ] } },
{ "type": "Feature", "properties": { "name": "DUPONT STATION ", "latitude": 43.674303, "longitude": -79.407119 }, "geometry": { "type": "Point", "coordinates": [ 628405.139998008147813, 4836932.165843182243407 ] } },
{ "type": "Feature", "properties": { "name": "SPADINA STATION ", "latitude": 43.670249, "longitude": -79.405189 }, "geometry": { "type": "Point", "coordinates": [ 628569.379281954141334, 4836484.904045598581433 ] } },
{ "type": "Feature", "properties": { "name": "ST GEORGE STATION ", "latitude": 43.668848, "longitude": -79.398089 }, "geometry": { "type": "Point", "coordinates": [ 629144.774058374576271, 4836340.332905320450664 ] } },
{ "type": "Feature", "properties": { "name": "MUSEUM STATION ", "latitude": 43.666621, "longitude": -79.393467 }, "geometry": { "type": "Point", "coordinates": [ 629522.190498603740707, 4836100.200553253293037 ] } },
{ "type": "Feature", "properties": { "name": "QUEEN'S PARK STATION ", "latitude": 43.659834, "longitude": -79.39069 }, "geometry": { "type": "Point", "coordinates": [ 629760.702649986604229, 4835350.753073023632169 ] } },
{ "type": "Feature", "properties": { "name": "ST PATRICK STATION ", "latitude": 43.654618, "longitude": -79.388225 }, "geometry": { "type": "Point", "coordinates": [ 629970.714286339003593, 4834775.305330093018711 ] } },
{ "type": "Feature", "properties": { "name": "OSGOODE STATION ", "latitude": 43.651122, "longitude": -79.386959 }, "geometry": { "type": "Point", "coordinates": [ 630080.35123249120079, 4834389.012274674139917 ] } },
{ "type": "Feature", "properties": { "name": "ST ANDREW STATION ", "latitude": 43.647605, "longitude": -79.385004 }, "geometry": { "type": "Point", "coordinates": [ 630245.611857268610038, 4834001.469775590114295 ] } },
{ "type": "Feature", "properties": { "name": "UNION STATION ", "latitude": 43.645255, "longitude": -79.380916 }, "geometry": { "type": "Point", "coordinates": [ 630580.395570567809045, 4833746.895642380230129 ] } },
{ "type": "Feature", "properties": { "name": "KING STATION ", "latitude": 43.649061, "longitude": -79.378109 }, "geometry": { "type": "Point", "coordinates": [ 630798.524159303749911, 4834174.022192771546543 ] } },
{ "type": "Feature", "properties": { "name": "QUEEN STATION ", "latitude": 43.652738, "longitude": -79.379616 }, "geometry": { "type": "Point", "coordinates": [ 630669.015271407901309, 4834580.027215517126024 ] } },
{ "type": "Feature", "properties": { "name": "DUNDAS STATION ", "latitude": 43.656517, "longitude": -79.381225 }, "geometry": { "type": "Point", "coordinates": [ 630531.074716999079101, 4834997.202643835917115 ] } },
{ "type": "Feature", "properties": { "name": "COLLEGE STATION ", "latitude": 43.660789, "longitude": -79.383103 }, "geometry": { "type": "Point", "coordinates": [ 630370.392910819384269, 4835468.712301598861814 ] } },
{ "type": "Feature", "properties": { "name": "WELLESLEY STATION ", "latitude": 43.665348, "longitude": -79.383388 }, "geometry": { "type": "Point", "coordinates": [ 630337.546855334425345, 4835974.602359930984676 ] } },
{ "type": "Feature", "properties": { "name": "BLOOR-YONGE STATION ", "latitude": 43.671043, "longitude": -79.385918 }, "geometry": { "type": "Point", "coordinates": [ 630121.259298159275204, 4836603.136960303410888 ] } },
{ "type": "Feature", "properties": { "name": "ROSEDALE STATION ", "latitude": 43.676748, "longitude": -79.388788 }, "geometry": { "type": "Point", "coordinates": [ 629877.580208330298774, 4837232.256480941548944 ] } },
{ "type": "Feature", "properties": { "name": "SUMMERHILL STATION ", "latitude": 43.682634, "longitude": -79.391176 }, "geometry": { "type": "Point", "coordinates": [ 629672.403913860092871, 4837882.240555977448821 ] } },
{ "type": "Feature", "properties": { "name": "ST CLAIR STATION ", "latitude": 43.687748, "longitude": -79.392589 }, "geometry": { "type": "Point", "coordinates": [ 629547.504883798304945, 4838448.012157593853772 ] } },
{ "type": "Feature", "properties": { "name": "DAVISVILLE STATION ", "latitude": 43.697748, "longitude": -79.396989 }, "geometry": { "type": "Point", "coordinates": [ 629171.41662824084051, 4839551.786509023047984 ] } },
{ "type": "Feature", "properties": { "name": "EGLINTON STATION ", "latitude": 43.705227, "longitude": -79.398648 }, "geometry": { "type": "Point", "coordinates": [ 629021.68802319013048, 4840379.850960889831185 ] } },
{ "type": "Feature", "properties": { "name": "LAWRENCE STATION ", "latitude": 43.725948, "longitude": -79.40269 }, "geometry": { "type": "Point", "coordinates": [ 628651.668335280846804, 4842674.930564736947417 ] } },
{ "type": "Feature", "properties": { "name": "YORK MILLS STATION ", "latitude": 43.744847, "longitude": -79.40649 }, "geometry": { "type": "Point", "coordinates": [ 628305.233788080397062, 4844768.048111941665411 ] } },
{ "type": "Feature", "properties": { "name": "SHEPPARD-YONGE STATION ", "latitude": 43.761647, "longitude": -79.411691 }, "geometry": { "type": "Point", "coordinates": [ 627850.678386812098324, 4846625.896361457183957 ] } },
{ "type": "Feature", "properties": { "name": "NORTH YORK CENTRE STATION ", "latitude": 43.767867, "longitude": -79.412755 }, "geometry": { "type": "Point", "coordinates": [ 627751.789970286772586, 4847315.07932195160538 ] } },
{ "type": "Feature", "properties": { "name": "FINCH STATION ", "latitude": 43.780847, "longitude": -79.415291 }, "geometry": { "type": "Point", "coordinates": [ 627520.081810637027957, 4848752.797315526753664 ] } },
{ "type": "Feature", "properties": { "name": "KENNEDY STATION ", "latitude": 43.732248, "longitude": -79.263884 }, "geometry": { "type": "Point", "coordinates": [ 639816.970053541357629, 4843599.498939277604222 ] } },
{ "type": "Feature", "properties": { "name": "WARDEN STATION ", "latitude": 43.711648, "longitude": -79.279585 }, "geometry": { "type": "Point", "coordinates": [ 638599.979445788543671, 4841285.191289400681853 ] } },
{ "type": "Feature", "properties": { "name": "VICTORIA PARK STATION ", "latitude": 43.694448, "longitude": -79.288985 }, "geometry": { "type": "Point", "coordinates": [ 637882.113529886119068, 4839359.209695445373654 ] } },
{ "type": "Feature", "properties": { "name": "MAIN STREET STATION ", "latitude": 43.688948, "longitude": -79.301585 }, "geometry": { "type": "Point", "coordinates": [ 636879.240595315466635, 4838727.48113467078656 ] } },
{ "type": "Feature", "properties": { "name": "WOODBINE STATION ", "latitude": 43.686548, "longitude": -79.312686 }, "geometry": { "type": "Point", "coordinates": [ 635989.996378687908873, 4838442.663181629963219 ] } },
{ "type": "Feature", "properties": { "name": "COXWELL STATION ", "latitude": 43.684148, "longitude": -79.322786 }, "geometry": { "type": "Point", "coordinates": [ 635181.3612033019308, 4838159.596519326791167 ] } },
{ "type": "Feature", "properties": { "name": "GREENWOOD STATION ", "latitude": 43.682648, "longitude": -79.330286 }, "geometry": { "type": "Point", "coordinates": [ 634580.216516019310802, 4837980.802636029198766 ] } },
{ "type": "Feature", "properties": { "name": "DONLANDS STATION ", "latitude": 43.681048, "longitude": -79.337786 }, "geometry": { "type": "Point", "coordinates": [ 633979.264289312879555, 4837790.95717447809875 ] } },
{ "type": "Feature", "properties": { "name": "PAPE STATION ", "latitude": 43.680148, "longitude": -79.344787 }, "geometry": { "type": "Point", "coordinates": [ 633416.95079912408255, 4837679.713751652278006 ] } },
{ "type": "Feature", "properties": { "name": "CHESTER STATION ", "latitude": 43.678239, "longitude": -79.352497 }, "geometry": { "type": "Point", "coordinates": [ 632799.696565053192899, 4837455.319284409284592 ] } },
{ "type": "Feature", "properties": { "name": "BROADVIEW STATION ", "latitude": 43.676948, "longitude": -79.358387 }, "geometry": { "type": "Point", "coordinates": [ 632327.755058351787739, 4837302.522161919623613 ] } },
{ "type": "Feature", "properties": { "name": "CASTLE FRANK STATION ", "latitude": 43.673748, "longitude": -79.368988 }, "geometry": { "type": "Point", "coordinates": [ 631480.203101984574459, 4836930.260194250382483 ] } },
{ "type": "Feature", "properties": { "name": "SHERBOURNE STATION ", "latitude": 43.672103, "longitude": -79.376161 }, "geometry": { "type": "Point", "coordinates": [ 630905.537665514042601, 4836736.215728643350303 ] } },
{ "type": "Feature", "properties": { "name": "BAY STATION ", "latitude": 43.669946, "longitude": -79.391129 }, "geometry": { "type": "Point", "coordinates": [ 629703.525630519376136, 4836473.139393953606486 ] } },
{ "type": "Feature", "properties": { "name": "ST GEORGE STATION ", "latitude": 43.668848, "longitude": -79.398089 }, "geometry": { "type": "Point", "coordinates": [ 629144.774058374576271, 4836340.332905320450664 ] } },
{ "type": "Feature", "properties": { "name": "SPADINA STATION ", "latitude": 43.667249, "longitude": -79.403889 }, "geometry": { "type": "Point", "coordinates": [ 628680.593737745773979, 4836153.729504079557955 ] } },
{ "type": "Feature", "properties": { "name": "BATHURST STATION ", "latitude": 43.666448, "longitude": -79.411189 }, "geometry": { "type": "Point", "coordinates": [ 628093.754493093932979, 4836053.470291339792311 ] } },
{ "type": "Feature", "properties": { "name": "CHRISTIE STATION ", "latitude": 43.664275, "longitude": -79.418395 }, "geometry": { "type": "Point", "coordinates": [ 627517.383296318468638, 4835801.02856517303735 ] } },
{ "type": "Feature", "properties": { "name": "OSSINGTON STATION ", "latitude": 43.662448, "longitude": -79.42629 }, "geometry": { "type": "Point", "coordinates": [ 626884.687662989832461, 4835586.011419492773712 ] } },
{ "type": "Feature", "properties": { "name": "DUFFERIN STATION ", "latitude": 43.660199, "longitude": -79.435477 }, "geometry": { "type": "Point", "coordinates": [ 626148.661697680829093, 4835322.221166351810098 ] } },
{ "type": "Feature", "properties": { "name": "LANSDOWNE STATION ", "latitude": 43.659246, "longitude": -79.442463 }, "geometry": { "type": "Point", "coordinates": [ 625587.355431140516885, 4835205.780099586583674 ] } },
{ "type": "Feature", "properties": { "name": "DUNDAS WEST STATION ", "latitude": 43.657023, "longitude": -79.452723 }, "geometry": { "type": "Point", "coordinates": [ 624764.665103055187501, 4834943.408290058374405 ] } },
{ "type": "Feature", "properties": { "name": "KEELE STATION ", "latitude": 43.655248, "longitude": -79.459891 }, "geometry": { "type": "Point", "coordinates": [ 624190.325691418140195, 4834735.518302619457245 ] } },
{ "type": "Feature", "properties": { "name": "HIGH PARK STATION ", "latitude": 43.654003, "longitude": -79.466748 }, "geometry": { "type": "Point", "coordinates": [ 623639.943805416463874, 4834587.005110954865813 ] } },
{ "type": "Feature", "properties": { "name": "RUNNYMEDE STATION ", "latitude": 43.652048, "longitude": -79.475991 }, "geometry": { "type": "Point", "coordinates": [ 622898.57637508388143, 4834356.146583707071841 ] } },
{ "type": "Feature", "properties": { "name": "JANE STATION ", "latitude": 43.650148, "longitude": -79.483892 }, "geometry": { "type": "Point", "coordinates": [ 622265.274774480029009, 4834133.45605197455734 ] } },
{ "type": "Feature", "properties": { "name": "OLD MILL STATION ", "latitude": 43.650148, "longitude": -79.495092 }, "geometry": { "type": "Point", "coordinates": [ 621362.049882623134181, 4834117.015898833982646 ] } },
{ "type": "Feature", "properties": { "name": "ROYAL YORK STATION ", "latitude": 43.648348, "longitude": -79.510993 }, "geometry": { "type": "Point", "coordinates": [ 620083.2997206695145, 4833893.971760815940797 ] } },
{ "type": "Feature", "properties": { "name": "ISLINGTON STATION ", "latitude": 43.645147, "longitude": -79.524192 }, "geometry": { "type": "Point", "coordinates": [ 619025.15594314946793, 4833519.446272286586463 ] } },
{ "type": "Feature", "properties": { "name": "KIPLING STATION ", "latitude": 43.637148, "longitude": -79.535993 }, "geometry": { "type": "Point", "coordinates": [ 618089.054721890599467, 4832614.200352859683335 ] } },
{ "type": "Feature", "properties": { "name": "DON MILLS STATION ", "latitude": 43.775547, "longitude": -79.346589 }, "geometry": { "type": "Point", "coordinates": [ 633060.291115632513538, 4848272.269765179604292 ] } },
{ "type": "Feature", "properties": { "name": "LESLIE STATION ", "latitude": 43.770847, "longitude": -79.367789 }, "geometry": { "type": "Point", "coordinates": [ 631364.464762964867987, 4847716.409596840851009 ] } },
{ "type": "Feature", "properties": { "name": "BESSARION STATION ", "latitude": 43.769201, "longitude": -79.376311 }, "geometry": { "type": "Point", "coordinates": [ 630682.169278433779255, 4847520.111158203333616 ] } },
{ "type": "Feature", "properties": { "name": "BAYVIEW STATION ", "latitude": 43.766871, "longitude": -79.386703 }, "geometry": { "type": "Point", "coordinates": [ 629850.803880384424701, 4847244.98078784532845 ] } },
{ "type": "Feature", "properties": { "name": "SHEPPARD-YONGE STATION ", "latitude": 43.761647, "longitude": -79.411691 }, "geometry": { "type": "Point", "coordinates": [ 627850.678386812098324, 4846625.896361457183957 ] } },
{ "type": "Feature", "properties": { "name": "KENNEDY STATION ", "latitude": 43.732248, "longitude": -79.263884 }, "geometry": { "type": "Point", "coordinates": [ 639816.970053541357629, 4843599.498939277604222 ] } },
{ "type": "Feature", "properties": { "name": "LAWRENCE EAST STATION ", "latitude": 43.750475, "longitude": -79.270436 }, "geometry": { "type": "Point", "coordinates": [ 639247.037584278383292, 4845612.846242123283446 ] } },
{ "type": "Feature", "properties": { "name": "ELLESMERE STATION ", "latitude": 43.766714, "longitude": -79.276507 }, "geometry": { "type": "Point", "coordinates": [ 638720.721260514459573, 4847406.248039746657014 ] } },
{ "type": "Feature", "properties": { "name": "MIDLAND STATION ", "latitude": 43.7704, "longitude": -79.272179 }, "geometry": { "type": "Point", "coordinates": [ 639060.535965685034171, 4847822.895339894108474 ] } },
{ "type": "Feature", "properties": { "name": "SCARBOROUGH CENTRE STATION ", "latitude": 43.774648, "longitude": -79.257285 }, "geometry": { "type": "Point", "coordinates": [ 640249.338147683651187, 4848319.824621265754104 ] } },
{ "type": "Feature", "properties": { "name": "MCCOWAN STATION ", "latitude": 43.774882, "longitude": -79.251654 }, "geometry": { "type": "Point", "coordinates": [ 640701.96432369761169, 4848355.368348475545645 ] } }
]
}
